{
"type": "FeatureCollection",
"name": "colmados",
"features": [
{ "type": "Feature", "properties": { "COMPANY_NAME": "C C Santiago & Asoc Inc", "ide": 0 }, "geometry": { "type": "Point", "coordinates": [ -66.097901, 18.398855 ] } },
{ "type": "Feature", "properties": { "COMPANY_NAME": "Aaa Mini-Almacenes Publicos", "ide": 1 }, "geometry": { "type": "Point", "coordinates": [ -66.613515, 18.018626 ] } },
{ "type": "Feature", "properties": { "COMPANY_NAME": "Jae Mana Corp", "ide": 2 }, "geometry": { "type": "Point", "coordinates": [ -67.13924, 18.192137 ] } },
{ "type": "Feature", "properties": { "COMPANY_NAME": "Fam Coop Plaza Tm", "ide": 3 }, "geometry": { "type": "Point", "coordinates": [ -66.391592, 18.226938 ] } },
{ "type": "Feature", "properties": { "COMPANY_NAME": "Los Jardinaes Superette", "ide": 4 }, "geometry": { "type": "Point", "coordinates": [ -66.590577, 18.041059 ] } },
{ "type": "Feature", "properties": { "COMPANY_NAME": "Pro Transport Inc", "ide": 5 }, "geometry": { "type": "Point", "coordinates": [ -66.097901, 18.398855 ] } },
{ "type": "Feature", "properties": { "COMPANY_NAME": "P S Acquisition", "ide": 6 }, "geometry": { "type": "Point", "coordinates": [ -66.097901, 18.398855 ] } },
{ "type": "Feature", "properties": { "COMPANY_NAME": "M J O Inc", "ide": 7 }, "geometry": { "type": "Point", "coordinates": [ -66.287387, 17.977771 ] } },
{ "type": "Feature", "properties": { "COMPANY_NAME": "San Juan Photo", "ide": 8 }, "geometry": { "type": "Point", "coordinates": [ -66.10245, 18.463853 ] } },
{ "type": "Feature", "properties": { "COMPANY_NAME": "Los Ninos Mini Market", "ide": 9 }, "geometry": { "type": "Point", "coordinates": [ -66.10245, 18.463853 ] } },
{ "type": "Feature", "properties": { "COMPANY_NAME": "M & S Commercial Storage", "ide": 10 }, "geometry": { "type": "Point", "coordinates": [ -65.824062, 18.122258 ] } },
{ "type": "Feature", "properties": { "COMPANY_NAME": "FYJ Supermarket", "ide": 11 }, "geometry": { "type": "Point", "coordinates": [ -65.824062, 18.122258 ] } },
{ "type": "Feature", "properties": { "COMPANY_NAME": "S M El Flamboyant", "ide": 12 }, "geometry": { "type": "Point", "coordinates": [ -66.597328, 18.023953 ] } },
{ "type": "Feature", "properties": { "COMPANY_NAME": "J V Convenience Store", "ide": 13 }, "geometry": { "type": "Point", "coordinates": [ -67.184182, 18.382524 ] } },
{ "type": "Feature", "properties": { "COMPANY_NAME": "K L Almacenes", "ide": 14 }, "geometry": { "type": "Point", "coordinates": [ -65.989345, 18.411025 ] } },
{ "type": "Feature", "properties": { "COMPANY_NAME": "Big Family Distribution Ctr", "ide": 15 }, "geometry": { "type": "Point", "coordinates": [ -66.131657, 18.436383 ] } },
{ "type": "Feature", "properties": { "COMPANY_NAME": "P S Acquisition", "ide": 16 }, "geometry": { "type": "Point", "coordinates": [ -66.726502, 18.448618 ] } },
{ "type": "Feature", "properties": { "COMPANY_NAME": "Las Vegas Self Svc", "ide": 17 }, "geometry": { "type": "Point", "coordinates": [ -66.131657, 18.436383 ] } },
{ "type": "Feature", "properties": { "COMPANY_NAME": "P R Food Corp", "ide": 18 }, "geometry": { "type": "Point", "coordinates": [ -66.131657, 18.436383 ] } },
{ "type": "Feature", "properties": { "COMPANY_NAME": "100 Percent Supermercado", "ide": 19 }, "geometry": { "type": "Point", "coordinates": [ -67.153613, 18.078632 ] } },
{ "type": "Feature", "properties": { "COMPANY_NAME": "Eli Mimimarket Villa Taina", "ide": 20 }, "geometry": { "type": "Point", "coordinates": [ -67.153613, 18.078632 ] } },
{ "type": "Feature", "properties": { "COMPANY_NAME": "Sup Sciectes", "ide": 21 }, "geometry": { "type": "Point", "coordinates": [ -67.153613, 18.078632 ] } },
{ "type": "Feature", "properties": { "COMPANY_NAME": "P B Inc", "ide": 22 }, "geometry": { "type": "Point", "coordinates": [ -65.976653, 18.421142 ] } },
{ "type": "Feature", "properties": { "COMPANY_NAME": "J & J Enterprises", "ide": 23 }, "geometry": { "type": "Point", "coordinates": [ -66.044868, 18.450962 ] } },
{ "type": "Feature", "properties": { "COMPANY_NAME": "Toa Alta Mini-Market", "ide": 24 }, "geometry": { "type": "Point", "coordinates": [ -66.252791, 18.385473 ] } },
{ "type": "Feature", "properties": { "COMPANY_NAME": "San Antonio Minimart", "ide": 25 }, "geometry": { "type": "Point", "coordinates": [ -67.147543, 18.446186 ] } },
{ "type": "Feature", "properties": { "COMPANY_NAME": "P S Acquisitioin", "ide": 26 }, "geometry": { "type": "Point", "coordinates": [ -66.042658, 18.45185 ] } },
{ "type": "Feature", "properties": { "COMPANY_NAME": "365 Minimarket", "ide": 27 }, "geometry": { "type": "Point", "coordinates": [ -66.062169, 17.96411 ] } },
{ "type": "Feature", "properties": { "COMPANY_NAME": "Las Palmas", "ide": 28 }, "geometry": { "type": "Point", "coordinates": [ -66.481241, 18.429814 ] } },
{ "type": "Feature", "properties": { "COMPANY_NAME": "P S Acquisition", "ide": 29 }, "geometry": { "type": "Point", "coordinates": [ -66.010827, 18.397262 ] } },
{ "type": "Feature", "properties": { "COMPANY_NAME": "Col La Real Market", "ide": 30 }, "geometry": { "type": "Point", "coordinates": [ -66.062169, 17.96411 ] } },
{ "type": "Feature", "properties": { "COMPANY_NAME": "ABC Netherlands Inc", "ide": 31 }, "geometry": { "type": "Point", "coordinates": [ -65.956169, 18.379809 ] } },
{ "type": "Feature", "properties": { "COMPANY_NAME": "P S Acquisition", "ide": 32 }, "geometry": { "type": "Point", "coordinates": [ -65.956169, 18.379809 ] } },
{ "type": "Feature", "properties": { "COMPANY_NAME": "Qym Food Mart Inc", "ide": 33 }, "geometry": { "type": "Point", "coordinates": [ -65.956169, 18.379809 ] } },
{ "type": "Feature", "properties": { "COMPANY_NAME": "DGA Selectos Mana Inc", "ide": 34 }, "geometry": { "type": "Point", "coordinates": [ -66.955194, 18.274665 ] } },
{ "type": "Feature", "properties": { "COMPANY_NAME": "Sup El Paraizo", "ide": 35 }, "geometry": { "type": "Point", "coordinates": [ -66.955194, 18.274665 ] } },
{ "type": "Feature", "properties": { "COMPANY_NAME": "P S Acquisition", "ide": 36 }, "geometry": { "type": "Point", "coordinates": [ -66.022914, 18.364172 ] } },
{ "type": "Feature", "properties": { "COMPANY_NAME": "S M Conchita Hato Rey", "ide": 37 }, "geometry": { "type": "Point", "coordinates": [ -66.053285, 18.368643 ] } },
{ "type": "Feature", "properties": { "COMPANY_NAME": "J G Ortiz Inc Edwards Food Mrt", "ide": 38 }, "geometry": { "type": "Point", "coordinates": [ -67.252348, 18.331968 ] } },
{ "type": "Feature", "properties": { "COMPANY_NAME": "Jrs Cash & Carry", "ide": 39 }, "geometry": { "type": "Point", "coordinates": [ -65.898701, 18.007523 ] } },
{ "type": "Feature", "properties": { "COMPANY_NAME": "W V Caribbean Business", "ide": 40 }, "geometry": { "type": "Point", "coordinates": [ -66.857146, 18.027761 ] } },
{ "type": "Feature", "properties": { "COMPANY_NAME": "Las Casitas Latal Building", "ide": 41 }, "geometry": { "type": "Point", "coordinates": [ -66.942198, 18.46595 ] } },
{ "type": "Feature", "properties": { "COMPANY_NAME": "E & M Market", "ide": 42 }, "geometry": { "type": "Point", "coordinates": [ -66.362645, 18.075964 ] } },
{ "type": "Feature", "properties": { "COMPANY_NAME": "C M Marketing", "ide": 43 }, "geometry": { "type": "Point", "coordinates": [ -66.071703, 18.443765 ] } },
{ "type": "Feature", "properties": { "COMPANY_NAME": "P S Acquisition", "ide": 44 }, "geometry": { "type": "Point", "coordinates": [ -66.06971, 18.427121 ] } },
{ "type": "Feature", "properties": { "COMPANY_NAME": "A M Rosario Distributors", "ide": 45 }, "geometry": { "type": "Point", "coordinates": [ -66.152472, 18.39084 ] } },
{ "type": "Feature", "properties": { "COMPANY_NAME": "Big Discount Minimarket", "ide": 46 }, "geometry": { "type": "Point", "coordinates": [ -66.152472, 18.39084 ] } },
{ "type": "Feature", "properties": { "COMPANY_NAME": "Luz S Garcia Diaz Grocery", "ide": 47 }, "geometry": { "type": "Point", "coordinates": [ -66.190046, 18.434607 ] } },
{ "type": "Feature", "properties": { "COMPANY_NAME": "R S Mini Market", "ide": 48 }, "geometry": { "type": "Point", "coordinates": [ -66.021597, 18.440943 ] } },
{ "type": "Feature", "properties": { "COMPANY_NAME": "Jam\/Luis R Acevedo", "ide": 49 }, "geometry": { "type": "Point", "coordinates": [ -66.131657, 18.436383 ] } },
{ "type": "Feature", "properties": { "COMPANY_NAME": "Comado Nuevo Ambiente", "ide": 50 }, "geometry": { "type": "Point", "coordinates": [ -66.097901, 18.398855 ] } },
{ "type": "Feature", "properties": { "COMPANY_NAME": "Mayaguez Health Food Ctr", "ide": 51 }, "geometry": { "type": "Point", "coordinates": [ -67.1452, 18.199072 ] } },
{ "type": "Feature", "properties": { "COMPANY_NAME": "Rosario Luis I", "ide": 52 }, "geometry": { "type": "Point", "coordinates": [ -67.101954, 18.496057 ] } },
{ "type": "Feature", "properties": { "COMPANY_NAME": "Colmado Berrios", "ide": 53 }, "geometry": { "type": "Point", "coordinates": [ -66.308952, 18.185405 ] } },
{ "type": "Feature", "properties": { "COMPANY_NAME": "Colmado La Envidia", "ide": 54 }, "geometry": { "type": "Point", "coordinates": [ -66.010319, 18.005738 ] } },
{ "type": "Feature", "properties": { "COMPANY_NAME": "Colmado Cafetin La Paloma", "ide": 55 }, "geometry": { "type": "Point", "coordinates": [ -65.98187, 18.41995 ] } },
{ "type": "Feature", "properties": { "COMPANY_NAME": "Colmado Panaderia Lomas", "ide": 56 }, "geometry": { "type": "Point", "coordinates": [ -65.945697, 18.373206 ] } },
{ "type": "Feature", "properties": { "COMPANY_NAME": "Mi Gente", "ide": 57 }, "geometry": { "type": "Point", "coordinates": [ -66.152472, 18.39084 ] } },
{ "type": "Feature", "properties": { "COMPANY_NAME": "Saez Convenience Store", "ide": 58 }, "geometry": { "type": "Point", "coordinates": [ -66.156583, 18.369368 ] } },
{ "type": "Feature", "properties": { "COMPANY_NAME": "Super Colmado Rodriguez", "ide": 59 }, "geometry": { "type": "Point", "coordinates": [ -66.049611, 18.440206 ] } },
{ "type": "Feature", "properties": { "COMPANY_NAME": "Supermercado University", "ide": 60 }, "geometry": { "type": "Point", "coordinates": [ -66.022914, 18.364172 ] } },
{ "type": "Feature", "properties": { "COMPANY_NAME": "Boqueron Liquor & Food Wrhse", "ide": 61 }, "geometry": { "type": "Point", "coordinates": [ -67.153613, 18.078632 ] } },
{ "type": "Feature", "properties": { "COMPANY_NAME": "Colmado Barra El Renacer", "ide": 62 }, "geometry": { "type": "Point", "coordinates": [ -67.153613, 18.078632 ] } },
{ "type": "Feature", "properties": { "COMPANY_NAME": "Colmado M & M", "ide": 63 }, "geometry": { "type": "Point", "coordinates": [ -67.059745, 18.046582 ] } },
{ "type": "Feature", "properties": { "COMPANY_NAME": "La Marqueta De La 4", "ide": 64 }, "geometry": { "type": "Point", "coordinates": [ -67.151309, 18.203004 ] } },
{ "type": "Feature", "properties": { "COMPANY_NAME": "Supermercado Napo Velez", "ide": 65 }, "geometry": { "type": "Point", "coordinates": [ -67.054948, 18.084731 ] } },
{ "type": "Feature", "properties": { "COMPANY_NAME": "Cafeteria & Colmado Interior", "ide": 66 }, "geometry": { "type": "Point", "coordinates": [ -66.644499, 17.992479 ] } },
{ "type": "Feature", "properties": { "COMPANY_NAME": "Colmado Aguas Marinas", "ide": 67 }, "geometry": { "type": "Point", "coordinates": [ -66.792338, 18.020781 ] } },
{ "type": "Feature", "properties": { "COMPANY_NAME": "Colmado Figueroa", "ide": 68 }, "geometry": { "type": "Point", "coordinates": [ -66.907956, 17.971541 ] } },
{ "type": "Feature", "properties": { "COMPANY_NAME": "Colmado Mis Amigos", "ide": 69 }, "geometry": { "type": "Point", "coordinates": [ -66.62053, 18.005615 ] } },
{ "type": "Feature", "properties": { "COMPANY_NAME": "Colmado Revolucion", "ide": 70 }, "geometry": { "type": "Point", "coordinates": [ -66.624308, 18.014572 ] } },
{ "type": "Feature", "properties": { "COMPANY_NAME": "Porta Latin Migdalia", "ide": 71 }, "geometry": { "type": "Point", "coordinates": [ -66.613515, 18.018626 ] } },
{ "type": "Feature", "properties": { "COMPANY_NAME": "Super Colmado La Salud", "ide": 72 }, "geometry": { "type": "Point", "coordinates": [ -66.492343, 18.127242 ] } },
{ "type": "Feature", "properties": { "COMPANY_NAME": "La Moca Mini Market", "ide": 73 }, "geometry": { "type": "Point", "coordinates": [ -66.721142, 18.05124 ] } },
{ "type": "Feature", "properties": { "COMPANY_NAME": "Colmado La Placita", "ide": 74 }, "geometry": { "type": "Point", "coordinates": [ -66.942198, 18.46595 ] } },
{ "type": "Feature", "properties": { "COMPANY_NAME": "Supermercado R Soto", "ide": 75 }, "geometry": { "type": "Point", "coordinates": [ -66.726502, 18.448618 ] } },
{ "type": "Feature", "properties": { "COMPANY_NAME": "Syntromax Noelis II", "ide": 76 }, "geometry": { "type": "Point", "coordinates": [ -66.562938, 18.361277 ] } },
{ "type": "Feature", "properties": { "COMPANY_NAME": "Supermercado Econo", "ide": 77 }, "geometry": { "type": "Point", "coordinates": [ -66.393967, 18.44754 ] } },
{ "type": "Feature", "properties": { "COMPANY_NAME": "Supermercado Selectos", "ide": 78 }, "geometry": { "type": "Point", "coordinates": [ -66.405406, 18.339175 ] } },
{ "type": "Feature", "properties": { "COMPANY_NAME": "Colmado Cafeteria Vargas", "ide": 79 }, "geometry": { "type": "Point", "coordinates": [ -65.880088, 18.430134 ] } },
{ "type": "Feature", "properties": { "COMPANY_NAME": "El Cocotero", "ide": 80 }, "geometry": { "type": "Point", "coordinates": [ -65.880088, 18.430134 ] } },
{ "type": "Feature", "properties": { "COMPANY_NAME": "La Central Baby Food Ctr", "ide": 81 }, "geometry": { "type": "Point", "coordinates": [ -65.899591, 18.379606 ] } },
{ "type": "Feature", "properties": { "COMPANY_NAME": "La Esquina Famosa", "ide": 82 }, "geometry": { "type": "Point", "coordinates": [ -65.874593, 18.368429 ] } },
{ "type": "Feature", "properties": { "COMPANY_NAME": "Playa Azul Mini Mart", "ide": 83 }, "geometry": { "type": "Point", "coordinates": [ -65.724069, 18.373307 ] } },
{ "type": "Feature", "properties": { "COMPANY_NAME": "La Nueva Napa", "ide": 84 }, "geometry": { "type": "Point", "coordinates": [ -65.874593, 18.368429 ] } },
{ "type": "Feature", "properties": { "COMPANY_NAME": "Selectros Quinones", "ide": 85 }, "geometry": { "type": "Point", "coordinates": [ -66.190046, 18.434607 ] } },
{ "type": "Feature", "properties": { "COMPANY_NAME": "Almacen Supermercado Pitusa", "ide": 86 }, "geometry": { "type": "Point", "coordinates": [ -65.956169, 18.379809 ] } },
{ "type": "Feature", "properties": { "COMPANY_NAME": "Jose Torres Perez Jr Colmados", "ide": 87 }, "geometry": { "type": "Point", "coordinates": [ -66.0958, 18.463186 ] } },
{ "type": "Feature", "properties": { "COMPANY_NAME": "Supermercado La Economia", "ide": 88 }, "geometry": { "type": "Point", "coordinates": [ -66.157062, 18.371898 ] } },
{ "type": "Feature", "properties": { "COMPANY_NAME": "Sabilos Place Inc", "ide": 89 }, "geometry": { "type": "Point", "coordinates": [ -66.088808, 18.392617 ] } },
{ "type": "Feature", "properties": { "COMPANY_NAME": "Supermercados Selectos", "ide": 90 }, "geometry": { "type": "Point", "coordinates": [ -66.006242, 18.42644 ] } },
{ "type": "Feature", "properties": { "COMPANY_NAME": "Pueblo", "ide": 91 }, "geometry": { "type": "Point", "coordinates": [ -65.956169, 18.379809 ] } },
{ "type": "Feature", "properties": { "COMPANY_NAME": "Supermercado Casa Blanca", "ide": 92 }, "geometry": { "type": "Point", "coordinates": [ -66.156593, 18.40706 ] } },
{ "type": "Feature", "properties": { "COMPANY_NAME": "Colmado El Jibarito", "ide": 93 }, "geometry": { "type": "Point", "coordinates": [ -66.173448, 18.364208 ] } },
{ "type": "Feature", "properties": { "COMPANY_NAME": "Supermercado Selecto Lomas", "ide": 94 }, "geometry": { "type": "Point", "coordinates": [ -66.152811, 18.377982 ] } },
{ "type": "Feature", "properties": { "COMPANY_NAME": "Coqui Shirtique II", "ide": 95 }, "geometry": { "type": "Point", "coordinates": [ -66.042658, 18.45185 ] } },
{ "type": "Feature", "properties": { "COMPANY_NAME": "Econo Morales II Supermercados", "ide": 96 }, "geometry": { "type": "Point", "coordinates": [ -66.151068, 18.35622 ] } },
{ "type": "Feature", "properties": { "COMPANY_NAME": "Betances Cash & Carry Provsns", "ide": 97 }, "geometry": { "type": "Point", "coordinates": [ -66.152472, 18.39084 ] } },
{ "type": "Feature", "properties": { "COMPANY_NAME": "Supermercado Estancia", "ide": 98 }, "geometry": { "type": "Point", "coordinates": [ -66.158568, 18.408265 ] } },
{ "type": "Feature", "properties": { "COMPANY_NAME": "Casa Raquel", "ide": 99 }, "geometry": { "type": "Point", "coordinates": [ -65.884156, 18.379095 ] } },
{ "type": "Feature", "properties": { "COMPANY_NAME": "Colmado Cafetin Villas", "ide": 100 }, "geometry": { "type": "Point", "coordinates": [ -65.880088, 18.430134 ] } },
{ "type": "Feature", "properties": { "COMPANY_NAME": "Colmado Cafetin Agrocentro", "ide": 101 }, "geometry": { "type": "Point", "coordinates": [ -66.32045, 18.338477 ] } },
{ "type": "Feature", "properties": { "COMPANY_NAME": "Cruz Montes Cesar Grocery", "ide": 102 }, "geometry": { "type": "Point", "coordinates": [ -66.471099, 18.316951 ] } },
{ "type": "Feature", "properties": { "COMPANY_NAME": "Colmado Cordero", "ide": 103 }, "geometry": { "type": "Point", "coordinates": [ -66.850169, 18.477039 ] } },
{ "type": "Feature", "properties": { "COMPANY_NAME": "Cruz Serrano Santos", "ide": 104 }, "geometry": { "type": "Point", "coordinates": [ -66.726502, 18.448618 ] } },
{ "type": "Feature", "properties": { "COMPANY_NAME": "Felipe Colon", "ide": 105 }, "geometry": { "type": "Point", "coordinates": [ -66.726502, 18.448618 ] } },
{ "type": "Feature", "properties": { "COMPANY_NAME": "Econo Barceloneta", "ide": 106 }, "geometry": { "type": "Point", "coordinates": [ -66.538642, 18.454517 ] } },
{ "type": "Feature", "properties": { "COMPANY_NAME": "Econo Barceloneta", "ide": 107 }, "geometry": { "type": "Point", "coordinates": [ -66.541788, 18.437846 ] } },
{ "type": "Feature", "properties": { "COMPANY_NAME": "El Balcony 19", "ide": 108 }, "geometry": { "type": "Point", "coordinates": [ -66.610913, 18.006109 ] } },
{ "type": "Feature", "properties": { "COMPANY_NAME": "Supermercado El Santo", "ide": 109 }, "geometry": { "type": "Point", "coordinates": [ -65.898701, 18.007523 ] } },
{ "type": "Feature", "properties": { "COMPANY_NAME": "Colmado Cafetin La Chringa", "ide": 110 }, "geometry": { "type": "Point", "coordinates": [ -65.881047, 18.0483 ] } },
{ "type": "Feature", "properties": { "COMPANY_NAME": "Colmado Rodriguez", "ide": 111 }, "geometry": { "type": "Point", "coordinates": [ -66.162225, 17.96242 ] } },
{ "type": "Feature", "properties": { "COMPANY_NAME": "Plaza Varader Inc", "ide": 112 }, "geometry": { "type": "Point", "coordinates": [ -65.802817, 18.084313 ] } },
{ "type": "Feature", "properties": { "COMPANY_NAME": "La Monserrate Food Ctr", "ide": 113 }, "geometry": { "type": "Point", "coordinates": [ -67.119709, 18.140595 ] } },
{ "type": "Feature", "properties": { "COMPANY_NAME": "Smart Dollar", "ide": 114 }, "geometry": { "type": "Point", "coordinates": [ -67.144598, 18.087543 ] } },
{ "type": "Feature", "properties": { "COMPANY_NAME": "Supermercado Napo Velez", "ide": 115 }, "geometry": { "type": "Point", "coordinates": [ -66.857146, 18.027761 ] } },
{ "type": "Feature", "properties": { "COMPANY_NAME": "Econo Agueybana Supermercados", "ide": 116 }, "geometry": { "type": "Point", "coordinates": [ -66.857146, 18.027761 ] } },
{ "type": "Feature", "properties": { "COMPANY_NAME": "Hernan Sanchez Correa Grocery", "ide": 117 }, "geometry": { "type": "Point", "coordinates": [ -67.192058, 18.380115 ] } },
{ "type": "Feature", "properties": { "COMPANY_NAME": "Supermercados Mr Special Inc", "ide": 118 }, "geometry": { "type": "Point", "coordinates": [ -66.957823, 18.073485 ] } },
{ "type": "Feature", "properties": { "COMPANY_NAME": "Colmado Piedra Bianca", "ide": 119 }, "geometry": { "type": "Point", "coordinates": [ -67.059745, 18.046582 ] } },
{ "type": "Feature", "properties": { "COMPANY_NAME": "Madeline Santiago Grocery", "ide": 120 }, "geometry": { "type": "Point", "coordinates": [ -67.113748, 18.394491 ] } },
{ "type": "Feature", "properties": { "COMPANY_NAME": "Caribbean Storage", "ide": 121 }, "geometry": { "type": "Point", "coordinates": [ -66.042658, 18.45185 ] } },
{ "type": "Feature", "properties": { "COMPANY_NAME": "Colmadito Jayuya", "ide": 122 }, "geometry": { "type": "Point", "coordinates": [ -66.152472, 18.39084 ] } },
{ "type": "Feature", "properties": { "COMPANY_NAME": "Colmado Martinez", "ide": 123 }, "geometry": { "type": "Point", "coordinates": [ -66.022914, 18.364172 ] } },
{ "type": "Feature", "properties": { "COMPANY_NAME": "Colmado Tejera", "ide": 124 }, "geometry": { "type": "Point", "coordinates": [ -66.057218, 18.446253 ] } },
{ "type": "Feature", "properties": { "COMPANY_NAME": "Colmado Y Granja Miliaris 2", "ide": 125 }, "geometry": { "type": "Point", "coordinates": [ -66.058086, 18.451472 ] } },
{ "type": "Feature", "properties": { "COMPANY_NAME": "Junior's Mini Market", "ide": 126 }, "geometry": { "type": "Point", "coordinates": [ -66.152472, 18.39084 ] } },
{ "type": "Feature", "properties": { "COMPANY_NAME": "Plaza Del Mercado Carolina", "ide": 127 }, "geometry": { "type": "Point", "coordinates": [ -65.956169, 18.379809 ] } },
{ "type": "Feature", "properties": { "COMPANY_NAME": "Camilles Sidewalk Cafe", "ide": 128 }, "geometry": { "type": "Point", "coordinates": [ -66.052794, 18.420982 ] } },
{ "type": "Feature", "properties": { "COMPANY_NAME": "Pueblo", "ide": 129 }, "geometry": { "type": "Point", "coordinates": [ -66.022914, 18.364172 ] } },
{ "type": "Feature", "properties": { "COMPANY_NAME": "Pueblo", "ide": 130 }, "geometry": { "type": "Point", "coordinates": [ -66.010827, 18.397262 ] } },
{ "type": "Feature", "properties": { "COMPANY_NAME": "Supermercado Cash & Carry", "ide": 131 }, "geometry": { "type": "Point", "coordinates": [ -66.053285, 18.368643 ] } },
{ "type": "Feature", "properties": { "COMPANY_NAME": "Supermercado Econo Rial", "ide": 132 }, "geometry": { "type": "Point", "coordinates": [ -66.100303, 18.393591 ] } },
{ "type": "Feature", "properties": { "COMPANY_NAME": "Colmado La Frontera", "ide": 133 }, "geometry": { "type": "Point", "coordinates": [ -65.880088, 18.430134 ] } },
{ "type": "Feature", "properties": { "COMPANY_NAME": "Selectos Brendalis", "ide": 134 }, "geometry": { "type": "Point", "coordinates": [ -65.884156, 18.379095 ] } },
{ "type": "Feature", "properties": { "COMPANY_NAME": "Jose Torres Guzman Grocery", "ide": 135 }, "geometry": { "type": "Point", "coordinates": [ -66.409675, 18.478275 ] } },
{ "type": "Feature", "properties": { "COMPANY_NAME": "Maldonado Crespo Grocery", "ide": 136 }, "geometry": { "type": "Point", "coordinates": [ -66.276134, 18.448825 ] } },
{ "type": "Feature", "properties": { "COMPANY_NAME": "Rooms Surf Shop", "ide": 137 }, "geometry": { "type": "Point", "coordinates": [ -66.726502, 18.448618 ] } },
{ "type": "Feature", "properties": { "COMPANY_NAME": "Duracen", "ide": 138 }, "geometry": { "type": "Point", "coordinates": [ -66.62042, 18.023474 ] } },
{ "type": "Feature", "properties": { "COMPANY_NAME": "Calmado Ramos", "ide": 139 }, "geometry": { "type": "Point", "coordinates": [ -66.62053, 18.005615 ] } },
{ "type": "Feature", "properties": { "COMPANY_NAME": "Econo Juana Diaz Seis Lineas", "ide": 140 }, "geometry": { "type": "Point", "coordinates": [ -66.49843, 18.000756 ] } },
{ "type": "Feature", "properties": { "COMPANY_NAME": "Colmado El Resuelve", "ide": 141 }, "geometry": { "type": "Point", "coordinates": [ -65.824062, 18.122258 ] } },
{ "type": "Feature", "properties": { "COMPANY_NAME": "Colmado Pa'lante", "ide": 142 }, "geometry": { "type": "Point", "coordinates": [ -65.898701, 18.007523 ] } },
{ "type": "Feature", "properties": { "COMPANY_NAME": "Colmado Rodriguez", "ide": 143 }, "geometry": { "type": "Point", "coordinates": [ -66.010319, 18.005738 ] } },
{ "type": "Feature", "properties": { "COMPANY_NAME": "Coqui Mini Market", "ide": 144 }, "geometry": { "type": "Point", "coordinates": [ -66.117624, 17.984192 ] } },
{ "type": "Feature", "properties": { "COMPANY_NAME": "Colmado Victoria", "ide": 145 }, "geometry": { "type": "Point", "coordinates": [ -67.054948, 18.084731 ] } },
{ "type": "Feature", "properties": { "COMPANY_NAME": "Supermercado Perez II", "ide": 146 }, "geometry": { "type": "Point", "coordinates": [ -67.059745, 18.046582 ] } },
{ "type": "Feature", "properties": { "COMPANY_NAME": "Colmado El Domino", "ide": 147 }, "geometry": { "type": "Point", "coordinates": [ -66.069357, 18.395354 ] } },
{ "type": "Feature", "properties": { "COMPANY_NAME": "Colmado La Parada", "ide": 148 }, "geometry": { "type": "Point", "coordinates": [ -66.043298, 18.397731 ] } },
{ "type": "Feature", "properties": { "COMPANY_NAME": "Calmado Los Vaqueritos", "ide": 149 }, "geometry": { "type": "Point", "coordinates": [ -66.186713, 18.372441 ] } },
{ "type": "Feature", "properties": { "COMPANY_NAME": "Colmado Polin", "ide": 150 }, "geometry": { "type": "Point", "coordinates": [ -66.190046, 18.434607 ] } },
{ "type": "Feature", "properties": { "COMPANY_NAME": "El Dorado Mini Market", "ide": 151 }, "geometry": { "type": "Point", "coordinates": [ -66.027273, 18.391509 ] } },
{ "type": "Feature", "properties": { "COMPANY_NAME": "Empresas Lemuel Corp", "ide": 152 }, "geometry": { "type": "Point", "coordinates": [ -66.075125, 18.45274 ] } },
{ "type": "Feature", "properties": { "COMPANY_NAME": "Placita Colmado Flamboyan", "ide": 153 }, "geometry": { "type": "Point", "coordinates": [ -66.152472, 18.39084 ] } },
{ "type": "Feature", "properties": { "COMPANY_NAME": "Colmado Calderon", "ide": 154 }, "geometry": { "type": "Point", "coordinates": [ -66.32713, 18.419602 ] } },
{ "type": "Feature", "properties": { "COMPANY_NAME": "Colmado Melendez", "ide": 155 }, "geometry": { "type": "Point", "coordinates": [ -66.227092, 18.218223 ] } },
{ "type": "Feature", "properties": { "COMPANY_NAME": "Colmado San Antonio", "ide": 156 }, "geometry": { "type": "Point", "coordinates": [ -66.276134, 18.448825 ] } },
{ "type": "Feature", "properties": { "COMPANY_NAME": "Dominguez Liquor Store & Mini", "ide": 157 }, "geometry": { "type": "Point", "coordinates": [ -66.402787, 18.449671 ] } },
{ "type": "Feature", "properties": { "COMPANY_NAME": "Supermercado Econo", "ide": 158 }, "geometry": { "type": "Point", "coordinates": [ -66.405406, 18.339175 ] } },
{ "type": "Feature", "properties": { "COMPANY_NAME": "Colmado Decimosegundo", "ide": 159 }, "geometry": { "type": "Point", "coordinates": [ -65.881047, 18.0483 ] } },
{ "type": "Feature", "properties": { "COMPANY_NAME": "Colmado Diaz", "ide": 160 }, "geometry": { "type": "Point", "coordinates": [ -66.010319, 18.005738 ] } },
{ "type": "Feature", "properties": { "COMPANY_NAME": "Colmado El Nuevo Ambiente", "ide": 161 }, "geometry": { "type": "Point", "coordinates": [ -66.010319, 18.005738 ] } },
{ "type": "Feature", "properties": { "COMPANY_NAME": "Colmado Ideal", "ide": 162 }, "geometry": { "type": "Point", "coordinates": [ -65.830568, 18.151778 ] } },
{ "type": "Feature", "properties": { "COMPANY_NAME": "Colmado Rodriguez", "ide": 163 }, "geometry": { "type": "Point", "coordinates": [ -66.010319, 18.005738 ] } },
{ "type": "Feature", "properties": { "COMPANY_NAME": "Colmado Sustache", "ide": 164 }, "geometry": { "type": "Point", "coordinates": [ -65.881047, 18.0483 ] } },
{ "type": "Feature", "properties": { "COMPANY_NAME": "Colmado Perez", "ide": 165 }, "geometry": { "type": "Point", "coordinates": [ -66.010319, 18.005738 ] } },
{ "type": "Feature", "properties": { "COMPANY_NAME": "Genesis Mini Market", "ide": 166 }, "geometry": { "type": "Point", "coordinates": [ -65.734432, 18.210097 ] } },
{ "type": "Feature", "properties": { "COMPANY_NAME": "Colmado Dorta", "ide": 167 }, "geometry": { "type": "Point", "coordinates": [ -66.814777, 18.45739 ] } },
{ "type": "Feature", "properties": { "COMPANY_NAME": "Colmado Garcia", "ide": 168 }, "geometry": { "type": "Point", "coordinates": [ -66.809033, 18.482204 ] } },
{ "type": "Feature", "properties": { "COMPANY_NAME": "Colmado Mora", "ide": 169 }, "geometry": { "type": "Point", "coordinates": [ -66.809033, 18.482204 ] } },
{ "type": "Feature", "properties": { "COMPANY_NAME": "Colmado Papa Teo", "ide": 170 }, "geometry": { "type": "Point", "coordinates": [ -66.850169, 18.477039 ] } },
{ "type": "Feature", "properties": { "COMPANY_NAME": "El Colmado De Victor", "ide": 171 }, "geometry": { "type": "Point", "coordinates": [ -66.809033, 18.482204 ] } },
{ "type": "Feature", "properties": { "COMPANY_NAME": "Mercado Arocho Israel", "ide": 172 }, "geometry": { "type": "Point", "coordinates": [ -66.597328, 18.023953 ] } },
{ "type": "Feature", "properties": { "COMPANY_NAME": "Sintromax Plaza Noelia 1", "ide": 173 }, "geometry": { "type": "Point", "coordinates": [ -66.481241, 18.429814 ] } },
{ "type": "Feature", "properties": { "COMPANY_NAME": "Felix Bar Grocery", "ide": 174 }, "geometry": { "type": "Point", "coordinates": [ -66.186713, 18.372441 ] } },
{ "type": "Feature", "properties": { "COMPANY_NAME": "Colmadito Jayuya", "ide": 175 }, "geometry": { "type": "Point", "coordinates": [ -66.192088, 18.402845 ] } },
{ "type": "Feature", "properties": { "COMPANY_NAME": "Colmado CT", "ide": 176 }, "geometry": { "type": "Point", "coordinates": [ -66.048488, 18.43871 ] } },
{ "type": "Feature", "properties": { "COMPANY_NAME": "Colmado Diaz", "ide": 177 }, "geometry": { "type": "Point", "coordinates": [ -66.048488, 18.43871 ] } },
{ "type": "Feature", "properties": { "COMPANY_NAME": "Colmado La Bodeguita", "ide": 178 }, "geometry": { "type": "Point", "coordinates": [ -66.047122, 18.44323 ] } },
{ "type": "Feature", "properties": { "COMPANY_NAME": "Colmado Marcano", "ide": 179 }, "geometry": { "type": "Point", "coordinates": [ -66.164062, 18.367305 ] } },
{ "type": "Feature", "properties": { "COMPANY_NAME": "Colmado Placita Mercado", "ide": 180 }, "geometry": { "type": "Point", "coordinates": [ -65.92924, 18.36595 ] } },
{ "type": "Feature", "properties": { "COMPANY_NAME": "Colmado Plaza Borinquen", "ide": 181 }, "geometry": { "type": "Point", "coordinates": [ -66.046509, 18.435098 ] } },
{ "type": "Feature", "properties": { "COMPANY_NAME": "Colmado Rodriguez", "ide": 182 }, "geometry": { "type": "Point", "coordinates": [ -65.956169, 18.379809 ] } },
{ "type": "Feature", "properties": { "COMPANY_NAME": "Colmado Rosado", "ide": 183 }, "geometry": { "type": "Point", "coordinates": [ -66.088808, 18.392617 ] } },
{ "type": "Feature", "properties": { "COMPANY_NAME": "Colmado Solimar", "ide": 184 }, "geometry": { "type": "Point", "coordinates": [ -66.152472, 18.39084 ] } },
{ "type": "Feature", "properties": { "COMPANY_NAME": "Colmado & Cafetin Sol", "ide": 185 }, "geometry": { "type": "Point", "coordinates": [ -66.05278, 18.434379 ] } },
{ "type": "Feature", "properties": { "COMPANY_NAME": "Doris Shop", "ide": 186 }, "geometry": { "type": "Point", "coordinates": [ -66.143675, 18.42302 ] } },
{ "type": "Feature", "properties": { "COMPANY_NAME": "Kiosko Providencia", "ide": 187 }, "geometry": { "type": "Point", "coordinates": [ -66.065784, 18.443458 ] } },
{ "type": "Feature", "properties": { "COMPANY_NAME": "Placita Javier", "ide": 188 }, "geometry": { "type": "Point", "coordinates": [ -65.956169, 18.379809 ] } },
{ "type": "Feature", "properties": { "COMPANY_NAME": "Supermercado Linares Vargas", "ide": 189 }, "geometry": { "type": "Point", "coordinates": [ -66.061804, 18.444246 ] } },
{ "type": "Feature", "properties": { "COMPANY_NAME": "Econo Morales De Santa Juanita", "ide": 190 }, "geometry": { "type": "Point", "coordinates": [ -66.151068, 18.35622 ] } },
{ "type": "Feature", "properties": { "COMPANY_NAME": "Pueblo International LLC", "ide": 191 }, "geometry": { "type": "Point", "coordinates": [ -66.102053, 18.406288 ] } },
{ "type": "Feature", "properties": { "COMPANY_NAME": "Supermercado Econo", "ide": 192 }, "geometry": { "type": "Point", "coordinates": [ -65.956169, 18.379809 ] } },
{ "type": "Feature", "properties": { "COMPANY_NAME": "Supermercado El Nuevo Trato", "ide": 193 }, "geometry": { "type": "Point", "coordinates": [ -66.152472, 18.39084 ] } },
{ "type": "Feature", "properties": { "COMPANY_NAME": "Supermercado Selecto Quinones", "ide": 194 }, "geometry": { "type": "Point", "coordinates": [ -66.190046, 18.434607 ] } },
{ "type": "Feature", "properties": { "COMPANY_NAME": "Supermercados Amigo", "ide": 195 }, "geometry": { "type": "Point", "coordinates": [ -66.022914, 18.364172 ] } },
{ "type": "Feature", "properties": { "COMPANY_NAME": "Supermercados Selectos", "ide": 196 }, "geometry": { "type": "Point", "coordinates": [ -65.956169, 18.379809 ] } },
{ "type": "Feature", "properties": { "COMPANY_NAME": "Wilfredo Herrera Inc", "ide": 197 }, "geometry": { "type": "Point", "coordinates": [ -66.04937, 18.435544 ] } },
{ "type": "Feature", "properties": { "COMPANY_NAME": "Colmado Bar Cafeteria Vista", "ide": 198 }, "geometry": { "type": "Point", "coordinates": [ -65.654394, 18.332087 ] } },
{ "type": "Feature", "properties": { "COMPANY_NAME": "Colmado El Nuevo Senado", "ide": 199 }, "geometry": { "type": "Point", "coordinates": [ -65.880088, 18.430134 ] } },
{ "type": "Feature", "properties": { "COMPANY_NAME": "Colmado Ricky", "ide": 200 }, "geometry": { "type": "Point", "coordinates": [ -65.874593, 18.368429 ] } },
{ "type": "Feature", "properties": { "COMPANY_NAME": "Colmado Santa Isidra", "ide": 201 }, "geometry": { "type": "Point", "coordinates": [ -65.654394, 18.332087 ] } },
{ "type": "Feature", "properties": { "COMPANY_NAME": "Maria Orlando Quinones Grocery", "ide": 202 }, "geometry": { "type": "Point", "coordinates": [ -65.724069, 18.373307 ] } },
{ "type": "Feature", "properties": { "COMPANY_NAME": "Rivera Self Svc", "ide": 203 }, "geometry": { "type": "Point", "coordinates": [ -65.654394, 18.332087 ] } },
{ "type": "Feature", "properties": { "COMPANY_NAME": "Benjamin Robles Grocery", "ide": 204 }, "geometry": { "type": "Point", "coordinates": [ -65.654394, 18.332087 ] } },
{ "type": "Feature", "properties": { "COMPANY_NAME": "Super Colmado Pablito", "ide": 205 }, "geometry": { "type": "Point", "coordinates": [ -65.874593, 18.368429 ] } },
{ "type": "Feature", "properties": { "COMPANY_NAME": "Supermercados Amigos Inc", "ide": 206 }, "geometry": { "type": "Point", "coordinates": [ -65.874593, 18.368429 ] } },
{ "type": "Feature", "properties": { "COMPANY_NAME": "Aventurero", "ide": 207 }, "geometry": { "type": "Point", "coordinates": [ -67.019926, 18.493679 ] } },
{ "type": "Feature", "properties": { "COMPANY_NAME": "Colmadito Roman", "ide": 208 }, "geometry": { "type": "Point", "coordinates": [ -67.019926, 18.493679 ] } },
{ "type": "Feature", "properties": { "COMPANY_NAME": "Colmado Areizaga", "ide": 209 }, "geometry": { "type": "Point", "coordinates": [ -67.147543, 18.446186 ] } },
{ "type": "Feature", "properties": { "COMPANY_NAME": "Colmado Barreto", "ide": 210 }, "geometry": { "type": "Point", "coordinates": [ -67.113748, 18.394491 ] } },
{ "type": "Feature", "properties": { "COMPANY_NAME": "Colmado Bradi", "ide": 211 }, "geometry": { "type": "Point", "coordinates": [ -67.184182, 18.382524 ] } },
{ "type": "Feature", "properties": { "COMPANY_NAME": "Colmado Cholo", "ide": 212 }, "geometry": { "type": "Point", "coordinates": [ -66.955194, 18.274665 ] } },
{ "type": "Feature", "properties": { "COMPANY_NAME": "Colmado Cruz", "ide": 213 }, "geometry": { "type": "Point", "coordinates": [ -67.019926, 18.493679 ] } },
{ "type": "Feature", "properties": { "COMPANY_NAME": "Edwin Hernandez Vargas Grocery", "ide": 214 }, "geometry": { "type": "Point", "coordinates": [ -67.184182, 18.382524 ] } },
{ "type": "Feature", "properties": { "COMPANY_NAME": "Colmado El Vencedor", "ide": 215 }, "geometry": { "type": "Point", "coordinates": [ -67.184182, 18.382524 ] } },
{ "type": "Feature", "properties": { "COMPANY_NAME": "Colmado Jimenez", "ide": 216 }, "geometry": { "type": "Point", "coordinates": [ -66.955194, 18.274665 ] } },
{ "type": "Feature", "properties": { "COMPANY_NAME": "Colmado Mendez", "ide": 217 }, "geometry": { "type": "Point", "coordinates": [ -66.955194, 18.274665 ] } },
{ "type": "Feature", "properties": { "COMPANY_NAME": "Colmado & Carniceria Torres", "ide": 218 }, "geometry": { "type": "Point", "coordinates": [ -67.113748, 18.394491 ] } },
{ "type": "Feature", "properties": { "COMPANY_NAME": "Velez Self Svc", "ide": 219 }, "geometry": { "type": "Point", "coordinates": [ -67.13924, 18.192137 ] } },
{ "type": "Feature", "properties": { "COMPANY_NAME": "Freshmart", "ide": 220 }, "geometry": { "type": "Point", "coordinates": [ -67.147543, 18.446186 ] } },
{ "type": "Feature", "properties": { "COMPANY_NAME": "Colmado Alicea", "ide": 221 }, "geometry": { "type": "Point", "coordinates": [ -65.824062, 18.122258 ] } },
{ "type": "Feature", "properties": { "COMPANY_NAME": "Colmado El Cruce", "ide": 222 }, "geometry": { "type": "Point", "coordinates": [ -65.734432, 18.210097 ] } },
{ "type": "Feature", "properties": { "COMPANY_NAME": "Colmado El Hit", "ide": 223 }, "geometry": { "type": "Point", "coordinates": [ -66.117624, 17.984192 ] } },
{ "type": "Feature", "properties": { "COMPANY_NAME": "Colmado Marquez", "ide": 224 }, "geometry": { "type": "Point", "coordinates": [ -66.010319, 18.005738 ] } },
{ "type": "Feature", "properties": { "COMPANY_NAME": "Rodriguez Diaz Damaris Grocery", "ide": 225 }, "geometry": { "type": "Point", "coordinates": [ -66.108339, 17.983604 ] } },
{ "type": "Feature", "properties": { "COMPANY_NAME": "Martinez Centeno Miguel", "ide": 226 }, "geometry": { "type": "Point", "coordinates": [ -66.726502, 18.448618 ] } },
{ "type": "Feature", "properties": { "COMPANY_NAME": "Colmado El Resuelve", "ide": 227 }, "geometry": { "type": "Point", "coordinates": [ -66.888449, 18.292694 ] } },
{ "type": "Feature", "properties": { "COMPANY_NAME": "Colmado Mary-Evy", "ide": 228 }, "geometry": { "type": "Point", "coordinates": [ -66.541788, 18.437846 ] } },
{ "type": "Feature", "properties": { "COMPANY_NAME": "Colorado Ramos", "ide": 229 }, "geometry": { "type": "Point", "coordinates": [ -66.88145, 18.295442 ] } },
{ "type": "Feature", "properties": { "COMPANY_NAME": "Colmado & Garaje Shop", "ide": 230 }, "geometry": { "type": "Point", "coordinates": [ -66.88145, 18.295442 ] } },
{ "type": "Feature", "properties": { "COMPANY_NAME": "Distribuidora Sisoma Inc", "ide": 231 }, "geometry": { "type": "Point", "coordinates": [ -66.541788, 18.437846 ] } },
{ "type": "Feature", "properties": { "COMPANY_NAME": "El Tunel Mini Market", "ide": 232 }, "geometry": { "type": "Point", "coordinates": [ -66.809033, 18.482204 ] } },
{ "type": "Feature", "properties": { "COMPANY_NAME": "La Bodega Del Pobre", "ide": 233 }, "geometry": { "type": "Point", "coordinates": [ -66.726502, 18.448618 ] } },
{ "type": "Feature", "properties": { "COMPANY_NAME": "Supermercado Jaymar", "ide": 234 }, "geometry": { "type": "Point", "coordinates": [ -66.542736, 18.43184 ] } },
{ "type": "Feature", "properties": { "COMPANY_NAME": "Supermercado O'Neill", "ide": 235 }, "geometry": { "type": "Point", "coordinates": [ -66.481241, 18.429814 ] } },
{ "type": "Feature", "properties": { "COMPANY_NAME": "Supermercados Florida", "ide": 236 }, "geometry": { "type": "Point", "coordinates": [ -66.562938, 18.361277 ] } },
{ "type": "Feature", "properties": { "COMPANY_NAME": "Supermercado Centro Ahorros", "ide": 237 }, "geometry": { "type": "Point", "coordinates": [ -66.850169, 18.477039 ] } },
{ "type": "Feature", "properties": { "COMPANY_NAME": "Nutribaby Food Market", "ide": 238 }, "geometry": { "type": "Point", "coordinates": [ -66.248524, 18.387254 ] } },
{ "type": "Feature", "properties": { "COMPANY_NAME": "Econo Comerio", "ide": 239 }, "geometry": { "type": "Point", "coordinates": [ -66.225414, 18.219847 ] } },
{ "type": "Feature", "properties": { "COMPANY_NAME": "Colmado Bar La Frontera", "ide": 240 }, "geometry": { "type": "Point", "coordinates": [ -66.471099, 18.316951 ] } },
{ "type": "Feature", "properties": { "COMPANY_NAME": "Colmado Puerto Rico", "ide": 241 }, "geometry": { "type": "Point", "coordinates": [ -66.391592, 18.226938 ] } },
{ "type": "Feature", "properties": { "COMPANY_NAME": "Super Bebe", "ide": 242 }, "geometry": { "type": "Point", "coordinates": [ -66.225464, 18.221656 ] } },
{ "type": "Feature", "properties": { "COMPANY_NAME": "Alturas Mini Market", "ide": 243 }, "geometry": { "type": "Point", "coordinates": [ -65.874593, 18.368429 ] } },
{ "type": "Feature", "properties": { "COMPANY_NAME": "Colmado Mori", "ide": 244 }, "geometry": { "type": "Point", "coordinates": [ -65.654394, 18.332087 ] } },
{ "type": "Feature", "properties": { "COMPANY_NAME": "Happy Baby Food Ctr", "ide": 245 }, "geometry": { "type": "Point", "coordinates": [ -65.654394, 18.332087 ] } },
{ "type": "Feature", "properties": { "COMPANY_NAME": "Chavier Wic Ctr", "ide": 246 }, "geometry": { "type": "Point", "coordinates": [ -66.627393, 18.103859 ] } },
{ "type": "Feature", "properties": { "COMPANY_NAME": "Colmado BJ & Cafe", "ide": 247 }, "geometry": { "type": "Point", "coordinates": [ -66.401562, 17.967766 ] } },
{ "type": "Feature", "properties": { "COMPANY_NAME": "Colmado El Porvenir", "ide": 248 }, "geometry": { "type": "Point", "coordinates": [ -66.59369, 18.218841 ] } },
{ "type": "Feature", "properties": { "COMPANY_NAME": "Colmado El Primo", "ide": 249 }, "geometry": { "type": "Point", "coordinates": [ -66.62053, 18.005615 ] } },
{ "type": "Feature", "properties": { "COMPANY_NAME": "Colmado Guzman", "ide": 250 }, "geometry": { "type": "Point", "coordinates": [ -66.492343, 18.127242 ] } },
{ "type": "Feature", "properties": { "COMPANY_NAME": "Colmado Quinones", "ide": 251 }, "geometry": { "type": "Point", "coordinates": [ -66.857146, 18.027761 ] } },
{ "type": "Feature", "properties": { "COMPANY_NAME": "Colmado Quinones", "ide": 252 }, "geometry": { "type": "Point", "coordinates": [ -66.857146, 18.027761 ] } },
{ "type": "Feature", "properties": { "COMPANY_NAME": "Colmado Rivera", "ide": 253 }, "geometry": { "type": "Point", "coordinates": [ -66.610913, 18.006109 ] } },
{ "type": "Feature", "properties": { "COMPANY_NAME": "Colmado Rodriguez", "ide": 254 }, "geometry": { "type": "Point", "coordinates": [ -66.401562, 17.967766 ] } },
{ "type": "Feature", "properties": { "COMPANY_NAME": "Colmado Thillet", "ide": 255 }, "geometry": { "type": "Point", "coordinates": [ -66.613515, 18.018626 ] } },
{ "type": "Feature", "properties": { "COMPANY_NAME": "Colmado Vega", "ide": 256 }, "geometry": { "type": "Point", "coordinates": [ -66.6163, 18.0184 ] } },
{ "type": "Feature", "properties": { "COMPANY_NAME": "Colmado & Ferreteria Andito", "ide": 257 }, "geometry": { "type": "Point", "coordinates": [ -66.26124, 18.003803 ] } },
{ "type": "Feature", "properties": { "COMPANY_NAME": "El Caobita", "ide": 258 }, "geometry": { "type": "Point", "coordinates": [ -66.907956, 17.971541 ] } },
{ "type": "Feature", "properties": { "COMPANY_NAME": "Michael Baby Food Ctr", "ide": 259 }, "geometry": { "type": "Point", "coordinates": [ -66.908117, 17.973709 ] } },
{ "type": "Feature", "properties": { "COMPANY_NAME": "Ruben Santiago Lopez Grocery", "ide": 260 }, "geometry": { "type": "Point", "coordinates": [ -66.492343, 18.127242 ] } },
{ "type": "Feature", "properties": { "COMPANY_NAME": "Super Colon Diaz", "ide": 261 }, "geometry": { "type": "Point", "coordinates": [ -66.481733, 18.125961 ] } },
{ "type": "Feature", "properties": { "COMPANY_NAME": "Alonso Rivera Armando Grocery", "ide": 262 }, "geometry": { "type": "Point", "coordinates": [ -67.154291, 18.436671 ] } },
{ "type": "Feature", "properties": { "COMPANY_NAME": "Cerrilos Mini Market", "ide": 263 }, "geometry": { "type": "Point", "coordinates": [ -67.153613, 18.078632 ] } },
{ "type": "Feature", "properties": { "COMPANY_NAME": "Colmado Cafetin Gonzalez", "ide": 264 }, "geometry": { "type": "Point", "coordinates": [ -66.955194, 18.274665 ] } },
{ "type": "Feature", "properties": { "COMPANY_NAME": "Colmado Cuchillas", "ide": 265 }, "geometry": { "type": "Point", "coordinates": [ -67.113748, 18.394491 ] } },
{ "type": "Feature", "properties": { "COMPANY_NAME": "Colmado Los Nietos", "ide": 266 }, "geometry": { "type": "Point", "coordinates": [ -67.015761, 18.501762 ] } },
{ "type": "Feature", "properties": { "COMPANY_NAME": "Colmado Ruiz Vargas", "ide": 267 }, "geometry": { "type": "Point", "coordinates": [ -66.980198, 18.181289 ] } },
{ "type": "Feature", "properties": { "COMPANY_NAME": "Colmado Sammy", "ide": 268 }, "geometry": { "type": "Point", "coordinates": [ -67.059745, 18.046582 ] } },
{ "type": "Feature", "properties": { "COMPANY_NAME": "Robin Cruz Rodriguez Grocery", "ide": 269 }, "geometry": { "type": "Point", "coordinates": [ -67.059745, 18.046582 ] } },
{ "type": "Feature", "properties": { "COMPANY_NAME": "Sombra Del Bosque", "ide": 270 }, "geometry": { "type": "Point", "coordinates": [ -67.019926, 18.493679 ] } },
{ "type": "Feature", "properties": { "COMPANY_NAME": "Supermercado Mr Special", "ide": 271 }, "geometry": { "type": "Point", "coordinates": [ -67.119709, 18.140595 ] } },
{ "type": "Feature", "properties": { "COMPANY_NAME": "Supercolmado Rodriguez Inc", "ide": 272 }, "geometry": { "type": "Point", "coordinates": [ -66.960406, 18.076216 ] } },
{ "type": "Feature", "properties": { "COMPANY_NAME": "Mr Special Supermarkets Inc", "ide": 273 }, "geometry": { "type": "Point", "coordinates": [ -67.13924, 18.192137 ] } },
{ "type": "Feature", "properties": { "COMPANY_NAME": "Colmado & Panaderia Lavadero", "ide": 274 }, "geometry": { "type": "Point", "coordinates": [ -67.099916, 18.129866 ] } },
{ "type": "Feature", "properties": { "COMPANY_NAME": "Hilda Self Svc", "ide": 275 }, "geometry": { "type": "Point", "coordinates": [ -67.054948, 18.084731 ] } },
{ "type": "Feature", "properties": { "COMPANY_NAME": "Colmado La Milagrosa", "ide": 276 }, "geometry": { "type": "Point", "coordinates": [ -67.153613, 18.078632 ] } },
{ "type": "Feature", "properties": { "COMPANY_NAME": "Mr Special Supermarkets Inc", "ide": 277 }, "geometry": { "type": "Point", "coordinates": [ -67.054948, 18.084731 ] } },
{ "type": "Feature", "properties": { "COMPANY_NAME": "Super Coop De Aguada", "ide": 278 }, "geometry": { "type": "Point", "coordinates": [ -67.184182, 18.382524 ] } },
{ "type": "Feature", "properties": { "COMPANY_NAME": "Todo A Peso", "ide": 279 }, "geometry": { "type": "Point", "coordinates": [ -66.942198, 18.46595 ] } },
{ "type": "Feature", "properties": { "COMPANY_NAME": "Colmado Vega", "ide": 280 }, "geometry": { "type": "Point", "coordinates": [ -66.942198, 18.46595 ] } },
{ "type": "Feature", "properties": { "COMPANY_NAME": "Texaco Food Mart Corp", "ide": 281 }, "geometry": { "type": "Point", "coordinates": [ -66.481241, 18.429814 ] } },
{ "type": "Feature", "properties": { "COMPANY_NAME": "Colmado El Sol", "ide": 282 }, "geometry": { "type": "Point", "coordinates": [ -66.629747, 18.011747 ] } },
{ "type": "Feature", "properties": { "COMPANY_NAME": "Colmado Jansue", "ide": 283 }, "geometry": { "type": "Point", "coordinates": [ -66.610913, 18.006109 ] } },
{ "type": "Feature", "properties": { "COMPANY_NAME": "Colmado Saffiro", "ide": 284 }, "geometry": { "type": "Point", "coordinates": [ -66.362645, 18.075964 ] } },
{ "type": "Feature", "properties": { "COMPANY_NAME": "Luis O Deroz Rolon Grocery", "ide": 285 }, "geometry": { "type": "Point", "coordinates": [ -66.358769, 18.083252 ] } },
{ "type": "Feature", "properties": { "COMPANY_NAME": "Pedro L Roman Grocery", "ide": 286 }, "geometry": { "type": "Point", "coordinates": [ -66.49843, 18.000756 ] } },
{ "type": "Feature", "properties": { "COMPANY_NAME": "Bodega Indiana", "ide": 287 }, "geometry": { "type": "Point", "coordinates": [ -66.624095, 18.012859 ] } },
{ "type": "Feature", "properties": { "COMPANY_NAME": "Cafeteria Colmado La Parada", "ide": 288 }, "geometry": { "type": "Point", "coordinates": [ -66.610913, 18.006109 ] } },
{ "type": "Feature", "properties": { "COMPANY_NAME": "Almacenes Pitusa", "ide": 289 }, "geometry": { "type": "Point", "coordinates": [ -65.654394, 18.332087 ] } },
{ "type": "Feature", "properties": { "COMPANY_NAME": "Colmado Carrasquillo", "ide": 290 }, "geometry": { "type": "Point", "coordinates": [ -65.884156, 18.379095 ] } },
{ "type": "Feature", "properties": { "COMPANY_NAME": "COLMADO SOBRINO", "ide": 291 }, "geometry": { "type": "Point", "coordinates": [ 66.62052917, 18.00561523 ] } },
{ "type": "Feature", "properties": { "COMPANY_NAME": "COLMADO EL MILENIO", "ide": 292 }, "geometry": { "type": "Point", "coordinates": [ -66.72446441, 18.16407966 ] } },
{ "type": "Feature", "properties": { "COMPANY_NAME": "COLMADO ESTRELLA", "ide": 293 }, "geometry": { "type": "Point", "coordinates": [ -67.19102478, 18.38060188 ] } },
{ "type": "Feature", "properties": { "COMPANY_NAME": "EDUARDS MINNI MARKET", "ide": 294 }, "geometry": { "type": "Point", "coordinates": [ -67.18418121, 18.38252449 ] } },
{ "type": "Feature", "properties": { "COMPANY_NAME": "SUPERMERCADO PLAZA BABY CTR", "ide": 295 }, "geometry": { "type": "Point", "coordinates": [ -67.18418121, 18.38252449 ] } },
{ "type": "Feature", "properties": { "COMPANY_NAME": "LA BAHIA MINIMARKET", "ide": 296 }, "geometry": { "type": "Point", "coordinates": [ -67.15396881, 18.43624877 ] } },
{ "type": "Feature", "properties": { "COMPANY_NAME": "COLMADO EL RETIRO", "ide": 297 }, "geometry": { "type": "Point", "coordinates": [ -67.14754486, 18.44618606 ] } },
{ "type": "Feature", "properties": { "COMPANY_NAME": "MR SPECIAL SUPERMARKETS INC", "ide": 298 }, "geometry": { "type": "Point", "coordinates": [ -67.13926696, 18.2818489 ] } },
{ "type": "Feature", "properties": { "COMPANY_NAME": "SUPERMERCADO & PANADERIA RIOS", "ide": 299 }, "geometry": { "type": "Point", "coordinates": [ -66.72650146, 18.44861793 ] } },
{ "type": "Feature", "properties": { "COMPANY_NAME": "CARLOS PELLOT ROMAN GROCERY", "ide": 300 }, "geometry": { "type": "Point", "coordinates": [ -66.75400543, 18.46713066 ] } },
{ "type": "Feature", "properties": { "COMPANY_NAME": "RECHELL CASH & CARRY", "ide": 301 }, "geometry": { "type": "Point", "coordinates": [ -66.72650146, 18.44861793 ] } },
{ "type": "Feature", "properties": { "COMPANY_NAME": "COLMADO DON CANDO", "ide": 302 }, "geometry": { "type": "Point", "coordinates": [ -67.15361785, 18.07863235 ] } },
{ "type": "Feature", "properties": { "COMPANY_NAME": "COLMADO & FERRETERIA LA TUNA", "ide": 303 }, "geometry": { "type": "Point", "coordinates": [ -67.15361785, 18.07863235 ] } },
{ "type": "Feature", "properties": { "COMPANY_NAME": "BETZAIDA PABY GROCERY", "ide": 304 }, "geometry": { "type": "Point", "coordinates": [ -66.72114562, 18.05124092 ] } },
{ "type": "Feature", "properties": { "COMPANY_NAME": "COLMADO EL PUENTE", "ide": 305 }, "geometry": { "type": "Point", "coordinates": [ -66.72114562, 18.05124092 ] } },
{ "type": "Feature", "properties": { "COMPANY_NAME": "COLMADO SAN LUIS", "ide": 306 }, "geometry": { "type": "Point", "coordinates": [ -66.72114562, 18.05124092 ] } },
{ "type": "Feature", "properties": { "COMPANY_NAME": "SUPERMERCADO SIEMPRE INC", "ide": 307 }, "geometry": { "type": "Point", "coordinates": [ -66.71269989, 17.98990058 ] } },
{ "type": "Feature", "properties": { "COMPANY_NAME": "COLMADO LA FAMILIA", "ide": 308 }, "geometry": { "type": "Point", "coordinates": [ -66.46856689, 18.33536529 ] } },
{ "type": "Feature", "properties": { "COMPANY_NAME": "COLMADO OTERO", "ide": 309 }, "geometry": { "type": "Point", "coordinates": [ -66.47109985, 18.31695175 ] } },
{ "type": "Feature", "properties": { "COMPANY_NAME": "PONS GARCIA WILFREDO", "ide": 310 }, "geometry": { "type": "Point", "coordinates": [ -66.70020294, 18.2649002 ] } },
{ "type": "Feature", "properties": { "COMPANY_NAME": "COLMADO CAMARGO", "ide": 311 }, "geometry": { "type": "Point", "coordinates": [ -66.79233551, 18.02078056 ] } },
{ "type": "Feature", "properties": { "COMPANY_NAME": "COLMADO LA FAVORITA", "ide": 312 }, "geometry": { "type": "Point", "coordinates": [ -66.80902862, 18.48220443 ] } },
{ "type": "Feature", "properties": { "COMPANY_NAME": "JOHNNY RODRIGUEZ GROCERY", "ide": 313 }, "geometry": { "type": "Point", "coordinates": [ -66.80902862, 18.48220443 ] } },
{ "type": "Feature", "properties": { "COMPANY_NAME": "DANNY VALENTIN GROCERY", "ide": 314 }, "geometry": { "type": "Point", "coordinates": [ -66.80902862, 18.48220443 ] } },
{ "type": "Feature", "properties": { "COMPANY_NAME": "TECFRANS", "ide": 315 }, "geometry": { "type": "Point", "coordinates": [ -67.02334594, 18.47042846 ] } },
{ "type": "Feature", "properties": { "COMPANY_NAME": "WANDA SOTO COLON GROCERY", "ide": 316 }, "geometry": { "type": "Point", "coordinates": [ -67.02173614, 18.47084999 ] } },
{ "type": "Feature", "properties": { "COMPANY_NAME": "SUPER COLMADO QUINONEZ", "ide": 317 }, "geometry": { "type": "Point", "coordinates": [ -67.01992797, 18.49367904 ] } },
{ "type": "Feature", "properties": { "COMPANY_NAME": "SUPERMERCADO FIDEAL", "ide": 318 }, "geometry": { "type": "Point", "coordinates": [ -67.05974578, 18.04658126 ] } },
{ "type": "Feature", "properties": { "COMPANY_NAME": "EVELYN SEGARRA RAMOS GROCERY", "ide": 319 }, "geometry": { "type": "Point", "coordinates": [ -67.05974578, 18.04658126 ] } },
{ "type": "Feature", "properties": { "COMPANY_NAME": "SUPERMERCADO ROCHE", "ide": 320 }, "geometry": { "type": "Point", "coordinates": [ -66.99117279, 18.25202369 ] } },
{ "type": "Feature", "properties": { "COMPANY_NAME": "N MINIMARKET CORP", "ide": 321 }, "geometry": { "type": "Point", "coordinates": [ -66.48500061, 18.43079948 ] } },
{ "type": "Feature", "properties": { "COMPANY_NAME": "COLMADO MIKE", "ide": 322 }, "geometry": { "type": "Point", "coordinates": [ -66.51097869, 18.45026016 ] } },
{ "type": "Feature", "properties": { "COMPANY_NAME": "J BADILLO VELAZQUEZ GROCERY", "ide": 323 }, "geometry": { "type": "Point", "coordinates": [ -67.11374664, 18.39449119 ] } },
{ "type": "Feature", "properties": { "COMPANY_NAME": "SUPERMERCADO MORALES INC", "ide": 324 }, "geometry": { "type": "Point", "coordinates": [ -67.11374664, 18.39449119 ] } },
{ "type": "Feature", "properties": { "COMPANY_NAME": "MR SPECIAL SUPERMARKETS INC", "ide": 325 }, "geometry": { "type": "Point", "coordinates": [ -67.11374664, 18.39449119 ] } },
{ "type": "Feature", "properties": { "COMPANY_NAME": "PARADE 115", "ide": 326 }, "geometry": { "type": "Point", "coordinates": [ -67.25234985, 18.3319683 ] } },
{ "type": "Feature", "properties": { "COMPANY_NAME": "COLMADO GONZALEZ", "ide": 327 }, "geometry": { "type": "Point", "coordinates": [ -66.9421997, 18.46595001 ] } },
{ "type": "Feature", "properties": { "COMPANY_NAME": "FELIX A SOTO GROCERY", "ide": 328 }, "geometry": { "type": "Point", "coordinates": [ -66.9421997, 18.46595001 ] } },
{ "type": "Feature", "properties": { "COMPANY_NAME": "COLMADO JARDINES", "ide": 329 }, "geometry": { "type": "Point", "coordinates": [ -67.14544677, 18.18212318 ] } },
{ "type": "Feature", "properties": { "COMPANY_NAME": "COLMADO LOPE JIMENEZ", "ide": 330 }, "geometry": { "type": "Point", "coordinates": [ -67.14842987, 18.17929649 ] } },
{ "type": "Feature", "properties": { "COMPANY_NAME": "PANADERIA & REPOSTERIA LA RUTA", "ide": 331 }, "geometry": { "type": "Point", "coordinates": [ -67.13923645, 18.19213676 ] } },
{ "type": "Feature", "properties": { "COMPANY_NAME": "COLMADO CAFETIN WILSON", "ide": 332 }, "geometry": { "type": "Point", "coordinates": [ -67.13923645, 18.19213676 ] } },
{ "type": "Feature", "properties": { "COMPANY_NAME": "COLMADO CASIANO", "ide": 333 }, "geometry": { "type": "Point", "coordinates": [ -67.04045104, 18.07723236 ] } },
{ "type": "Feature", "properties": { "COMPANY_NAME": "COLON GROCERY", "ide": 334 }, "geometry": { "type": "Point", "coordinates": [ -67.05494689, 18.08473205 ] } },
{ "type": "Feature", "properties": { "COMPANY_NAME": "PUEBLO INTERNATIONAL LLC", "ide": 335 }, "geometry": { "type": "Point", "coordinates": [ -67.05494689, 18.08473205 ] } },
{ "type": "Feature", "properties": { "COMPANY_NAME": "COLMADO RIVERA", "ide": 336 }, "geometry": { "type": "Point", "coordinates": [ -66.95519256, 18.27466392 ] } },
{ "type": "Feature", "properties": { "COMPANY_NAME": "CAFETERIA UN NUEVO AMANECER", "ide": 337 }, "geometry": { "type": "Point", "coordinates": [ -66.95519256, 18.27466392 ] } },
{ "type": "Feature", "properties": { "COMPANY_NAME": "SONGEL EXTRA", "ide": 338 }, "geometry": { "type": "Point", "coordinates": [ -66.40541076, 18.33917617 ] } },
{ "type": "Feature", "properties": { "COMPANY_NAME": "SUPERMAX", "ide": 339 }, "geometry": { "type": "Point", "coordinates": [ -66.40278625, 18.44967269 ] } },
{ "type": "Feature", "properties": { "COMPANY_NAME": "SUPERMERCADO SELECTO SABANA", "ide": 340 }, "geometry": { "type": "Point", "coordinates": [ -66.40278625, 18.44967269 ] } },
{ "type": "Feature", "properties": { "COMPANY_NAME": "COLMADO WILMER", "ide": 341 }, "geometry": { "type": "Point", "coordinates": [ -66.85714721, 18.02775955 ] } },
{ "type": "Feature", "properties": { "COMPANY_NAME": "SUPERMERCADO DON BOSCO", "ide": 342 }, "geometry": { "type": "Point", "coordinates": [ -66.85391235, 18.03159141 ] } },
{ "type": "Feature", "properties": { "COMPANY_NAME": "CENTRO AHORROS DE JESUS", "ide": 343 }, "geometry": { "type": "Point", "coordinates": [ -66.22807312, 17.97363471 ] } },
{ "type": "Feature", "properties": { "COMPANY_NAME": "EL PUNTO", "ide": 344 }, "geometry": { "type": "Point", "coordinates": [ -65.89869689, 18.00752449 ] } },
{ "type": "Feature", "properties": { "COMPANY_NAME": "LILI EL NUEVO MARIANI", "ide": 345 }, "geometry": { "type": "Point", "coordinates": [ -65.89869689, 18.00752449 ] } },
{ "type": "Feature", "properties": { "COMPANY_NAME": "COLMADO EL GRAVE", "ide": 346 }, "geometry": { "type": "Point", "coordinates": [ -66.64081573, 18.0109806 ] } },
{ "type": "Feature", "properties": { "COMPANY_NAME": "COLMADO PLAZA LA FAMILIA", "ide": 347 }, "geometry": { "type": "Point", "coordinates": [ -65.9759674, 18.42947578 ] } },
{ "type": "Feature", "properties": { "COMPANY_NAME": "RENE MINIMARKET", "ide": 348 }, "geometry": { "type": "Point", "coordinates": [ -66.61351776, 18.01862525 ] } },
{ "type": "Feature", "properties": { "COMPANY_NAME": "SUPERMERCADOS GRANDE", "ide": 349 }, "geometry": { "type": "Point", "coordinates": [ -65.65438842, 18.33208847 ] } },
{ "type": "Feature", "properties": { "COMPANY_NAME": "COLMADO LAS FLORES", "ide": 350 }, "geometry": { "type": "Point", "coordinates": [ -65.87459564, 18.36842727 ] } },
{ "type": "Feature", "properties": { "COMPANY_NAME": "COLMADO OSVALDO", "ide": 351 }, "geometry": { "type": "Point", "coordinates": [ -66.49234771, 18.12724113 ] } },
{ "type": "Feature", "properties": { "COMPANY_NAME": "SUPERMERCADO FAM COOP VILLALBA", "ide": 352 }, "geometry": { "type": "Point", "coordinates": [ -66.48173522, 18.12595939 ] } },
{ "type": "Feature", "properties": { "COMPANY_NAME": "COLMADO FERRETERIA EL NUEVO", "ide": 353 }, "geometry": { "type": "Point", "coordinates": [ -65.8810501, 18.04829978 ] } },
{ "type": "Feature", "properties": { "COMPANY_NAME": "PALMAREJO MINI MARKET", "ide": 354 }, "geometry": { "type": "Point", "coordinates": [ -66.32044982, 18.33847618 ] } },
{ "type": "Feature", "properties": { "COMPANY_NAME": "COSS SUPERMARKET", "ide": 355 }, "geometry": { "type": "Point", "coordinates": [ -65.82406616, 18.12225723 ] } },
{ "type": "Feature", "properties": { "COMPANY_NAME": "COLMADO LA ESQUINA DE GLORIA", "ide": 356 }, "geometry": { "type": "Point", "coordinates": [ -65.82406616, 18.12225723 ] } },
{ "type": "Feature", "properties": { "COMPANY_NAME": "NESTOR MORALES CARRASQUILLO", "ide": 357 }, "geometry": { "type": "Point", "coordinates": [ -65.82406616, 18.12225723 ] } },
{ "type": "Feature", "properties": { "COMPANY_NAME": "LA BODEGA DE LA COMUNIDAD", "ide": 358 }, "geometry": { "type": "Point", "coordinates": [ -66.49842834, 18.00075531 ] } },
{ "type": "Feature", "properties": { "COMPANY_NAME": "COLMADO LOPEZ", "ide": 359 }, "geometry": { "type": "Point", "coordinates": [ -66.06578063, 18.44345855 ] } },
{ "type": "Feature", "properties": { "COMPANY_NAME": "MILEDYS RIVERA MELENDEZ GRCRY", "ide": 360 }, "geometry": { "type": "Point", "coordinates": [ -66.06578063, 18.44345855 ] } },
{ "type": "Feature", "properties": { "COMPANY_NAME": "VICENTE RIVERA GROCERY", "ide": 361 }, "geometry": { "type": "Point", "coordinates": [ -66.0548706, 18.44983673 ] } },
{ "type": "Feature", "properties": { "COMPANY_NAME": "COLMADO CAFETIN LAS CASAS", "ide": 362 }, "geometry": { "type": "Point", "coordinates": [ -66.0451126, 18.44479179 ] } },
{ "type": "Feature", "properties": { "COMPANY_NAME": "FOOD PLAZA", "ide": 363 }, "geometry": { "type": "Point", "coordinates": [ -66.04878234, 18.43594169 ] } },
{ "type": "Feature", "properties": { "COMPANY_NAME": "FULL HOUSE", "ide": 364 }, "geometry": { "type": "Point", "coordinates": [ -66.05909729, 18.43770027 ] } },
{ "type": "Feature", "properties": { "COMPANY_NAME": "COLON ELEUTERIO RIVERA GROCERY", "ide": 365 }, "geometry": { "type": "Point", "coordinates": [ -66.0529251, 18.41204452 ] } },
{ "type": "Feature", "properties": { "COMPANY_NAME": "COLMADO EL PROGRESO", "ide": 366 }, "geometry": { "type": "Point", "coordinates": [ -66.06330871, 18.41755485 ] } },
{ "type": "Feature", "properties": { "COMPANY_NAME": "PLACITA LA FAMILIA", "ide": 367 }, "geometry": { "type": "Point", "coordinates": [ -66.07957458, 18.40273666 ] } },
{ "type": "Feature", "properties": { "COMPANY_NAME": "COLMADO CAFETIN CESAR", "ide": 368 }, "geometry": { "type": "Point", "coordinates": [ -66.01840209, 18.40065574 ] } },
{ "type": "Feature", "properties": { "COMPANY_NAME": "EL COLMADO ENCANTADO", "ide": 369 }, "geometry": { "type": "Point", "coordinates": [ -66.01082611, 18.39726257 ] } },
{ "type": "Feature", "properties": { "COMPANY_NAME": "SUPERMERCADO DONA ANA", "ide": 370 }, "geometry": { "type": "Point", "coordinates": [ -66.05494689, 18.40313148 ] } },
{ "type": "Feature", "properties": { "COMPANY_NAME": "COLMADO PLACITA", "ide": 371 }, "geometry": { "type": "Point", "coordinates": [ -66.05130004, 18.40069961 ] } },
{ "type": "Feature", "properties": { "COMPANY_NAME": "SUPERMERCADO SM", "ide": 372 }, "geometry": { "type": "Point", "coordinates": [ -66.05130004, 18.40069961 ] } },
{ "type": "Feature", "properties": { "COMPANY_NAME": "JIMMY 24 MINIMARK", "ide": 373 }, "geometry": { "type": "Point", "coordinates": [ -66.19004821, 18.43460845 ] } },
{ "type": "Feature", "properties": { "COMPANY_NAME": "SUPERMERCADO CENTRO AHORRO", "ide": 374 }, "geometry": { "type": "Point", "coordinates": [ -66.18671417, 18.37244033 ] } },
{ "type": "Feature", "properties": { "COMPANY_NAME": "PROVISIONES CASITO", "ide": 375 }, "geometry": { "type": "Point", "coordinates": [ -66.15247344, 18.39084053 ] } },
{ "type": "Feature", "properties": { "COMPANY_NAME": "FRANCISCO ALDAROND GROCERY", "ide": 376 }, "geometry": { "type": "Point", "coordinates": [ -66.1675415, 18.39796447 ] } },
{ "type": "Feature", "properties": { "COMPANY_NAME": "COLMADO CAFETIN EL CAOBO", "ide": 377 }, "geometry": { "type": "Point", "coordinates": [ -66.18585205, 18.3987255 ] } },
{ "type": "Feature", "properties": { "COMPANY_NAME": "SUPER AHORROS ELIUT", "ide": 378 }, "geometry": { "type": "Point", "coordinates": [ -66.15490722, 18.39735221 ] } },
{ "type": "Feature", "properties": { "COMPANY_NAME": "SUPERMERCADOS ECONO", "ide": 379 }, "geometry": { "type": "Point", "coordinates": [ -66.13165283, 18.4363842 ] } },
{ "type": "Feature", "properties": { "COMPANY_NAME": "PUERTO RICO TRANSPORT-LOGISTIC", "ide": 380 }, "geometry": { "type": "Point", "coordinates": [ -66.13165283, 18.4363842 ] } },
{ "type": "Feature", "properties": { "COMPANY_NAME": "SUPERMERCADO FAMCOOP", "ide": 381 }, "geometry": { "type": "Point", "coordinates": [ -66.13165283, 18.4363842 ] } },
{ "type": "Feature", "properties": { "COMPANY_NAME": "COLMADO SOLA", "ide": 382 }, "geometry": { "type": "Point", "coordinates": [ -66.10814666, 18.36501121 ] } },
{ "type": "Feature", "properties": { "COMPANY_NAME": "SUPERMERCADO 2000", "ide": 383 }, "geometry": { "type": "Point", "coordinates": [ -66.10814666, 18.36501121 ] } },
{ "type": "Feature", "properties": { "COMPANY_NAME": "COLMADO LAS ROSAS", "ide": 384 }, "geometry": { "type": "Point", "coordinates": [ -66.02291107, 18.36417198 ] } },
{ "type": "Feature", "properties": { "COMPANY_NAME": "ANGEL L RODRIGUEZ MORA GROCERY", "ide": 385 }, "geometry": { "type": "Point", "coordinates": [ -66.02291107, 18.36417198 ] } },
{ "type": "Feature", "properties": { "COMPANY_NAME": "JESENIA RENDON ACEVEDO GROCERY", "ide": 386 }, "geometry": { "type": "Point", "coordinates": [ -66.02291107, 18.36417198 ] } },
{ "type": "Feature", "properties": { "COMPANY_NAME": "LUIS TOYENS GROCERY", "ide": 387 }, "geometry": { "type": "Point", "coordinates": [ -66.02159881, 18.44094467 ] } },
{ "type": "Feature", "properties": { "COMPANY_NAME": "SUPER BABY FOOD CAROLINA", "ide": 388 }, "geometry": { "type": "Point", "coordinates": [ -65.96501922, 18.3883152 ] } },
{ "type": "Feature", "properties": { "COMPANY_NAME": "SUPERCOLMADO LA ESPERANZA", "ide": 389 }, "geometry": { "type": "Point", "coordinates": [ -65.95767211, 18.40066528 ] } },
{ "type": "Feature", "properties": { "COMPANY_NAME": "BRENDA VELAZQUEZ JIMENEZ GRCRY", "ide": 390 }, "geometry": { "type": "Point", "coordinates": [ -65.95616912, 18.37980842 ] } },
{ "type": "Feature", "properties": { "COMPANY_NAME": "LA MILAGROSA SUPER MARKET", "ide": 391 }, "geometry": { "type": "Point", "coordinates": [ -65.95616912, 18.37980842 ] } },
{ "type": "Feature", "properties": { "COMPANY_NAME": "COLMADO CARVAJAL INC", "ide": 392 }, "geometry": { "type": "Point", "coordinates": [ -65.95616912, 18.37980842 ] } },
{ "type": "Feature", "properties": { "COMPANY_NAME": "PUEBLO INC", "ide": 393 }, "geometry": { "type": "Point", "coordinates": [ -65.95616912, 18.37980842 ] } },
{ "type": "Feature", "properties": { "COMPANY_NAME": "SUPERMERCADO EL MEJOR", "ide": 394 }, "geometry": { "type": "Point", "coordinates": [ -65.94418334, 18.3701992 ] } },
{ "type": "Feature", "properties": { "COMPANY_NAME": "COLMADO DONA LINA", "ide": 395 }, "geometry": { "type": "Point", "coordinates": [ -66.62052917, 18.00561523 ] } },
{ "type": "Feature", "properties": { "COMPANY_NAME": "JA MANA SELECTOS AGUADA", "ide": 396 }, "geometry": { "type": "Point", "coordinates": [ -67.18418121, 18.38252449 ] } },
{ "type": "Feature", "properties": { "COMPANY_NAME": "COLMADO REYES", "ide": 397 }, "geometry": { "type": "Point", "coordinates": [ -66.72650146, 18.44861793 ] } },
{ "type": "Feature", "properties": { "COMPANY_NAME": "SUPER COLMADO BARRANCA", "ide": 398 }, "geometry": { "type": "Point", "coordinates": [ -66.72650146, 18.44861793 ] } },
{ "type": "Feature", "properties": { "COMPANY_NAME": "SUPERMERCADO & CARNICERIA", "ide": 399 }, "geometry": { "type": "Point", "coordinates": [ -66.72650146, 18.44861793 ] } },
{ "type": "Feature", "properties": { "COMPANY_NAME": "SUPERMERCADO BAYON", "ide": 400 }, "geometry": { "type": "Point", "coordinates": [ -66.72650146, 18.44861793 ] } },
{ "type": "Feature", "properties": { "COMPANY_NAME": "KARK CORP", "ide": 401 }, "geometry": { "type": "Point", "coordinates": [ -66.73287963, 18.46870803 ] } },
{ "type": "Feature", "properties": { "COMPANY_NAME": "COLMADO CHIQUITIN", "ide": 402 }, "geometry": { "type": "Point", "coordinates": [ -67.16085815, 18.08837127 ] } },
{ "type": "Feature", "properties": { "COMPANY_NAME": "COLMADO REAL", "ide": 403 }, "geometry": { "type": "Point", "coordinates": [ -67.18911743, 18.07606887 ] } },
{ "type": "Feature", "properties": { "COMPANY_NAME": "RAFAEL ACOSTA GROCERY", "ide": 404 }, "geometry": { "type": "Point", "coordinates": [ -67.15361785, 18.07863235 ] } },
{ "type": "Feature", "properties": { "COMPANY_NAME": "SUPERMERCADO PLAZA DEL PUERTO", "ide": 405 }, "geometry": { "type": "Point", "coordinates": [ -67.15361785, 18.07863235 ] } },
{ "type": "Feature", "properties": { "COMPANY_NAME": "COLMADO EL RETONO", "ide": 406 }, "geometry": { "type": "Point", "coordinates": [ -66.85016632, 18.47703933 ] } },
{ "type": "Feature", "properties": { "COMPANY_NAME": "COLMADO EL MANGO", "ide": 407 }, "geometry": { "type": "Point", "coordinates": [ -66.9578247, 18.07348442 ] } },
{ "type": "Feature", "properties": { "COMPANY_NAME": "MC SUPERMARKET", "ide": 408 }, "geometry": { "type": "Point", "coordinates": [ -66.9578247, 18.07348442 ] } },
{ "type": "Feature", "properties": { "COMPANY_NAME": "SUPERMERCADO SELECTO CIALES", "ide": 409 }, "geometry": { "type": "Point", "coordinates": [ -66.47109985, 18.31695175 ] } },
{ "type": "Feature", "properties": { "COMPANY_NAME": "R SOTO UTUADO INC", "ide": 410 }, "geometry": { "type": "Point", "coordinates": [ -66.59732818, 18.02395248 ] } },
{ "type": "Feature", "properties": { "COMPANY_NAME": "ERNESTO VAZQUEZ VEGA GROCERY", "ide": 411 }, "geometry": { "type": "Point", "coordinates": [ -66.90795898, 17.97154045 ] } },
{ "type": "Feature", "properties": { "COMPANY_NAME": "COLMADO TITE", "ide": 412 }, "geometry": { "type": "Point", "coordinates": [ -66.80902862, 18.48220443 ] } },
{ "type": "Feature", "properties": { "COMPANY_NAME": "COLMADO MINGUELA", "ide": 413 }, "geometry": { "type": "Point", "coordinates": [ -67.11971282, 18.14059638 ] } },
{ "type": "Feature", "properties": { "COMPANY_NAME": "LUIS F MALAVE GROCERY", "ide": 414 }, "geometry": { "type": "Point", "coordinates": [ -67.01992797, 18.49367904 ] } },
{ "type": "Feature", "properties": { "COMPANY_NAME": "MERCADO RAMOS DELIA", "ide": 415 }, "geometry": { "type": "Point", "coordinates": [ -67.01992797, 18.49367904 ] } },
{ "type": "Feature", "properties": { "COMPANY_NAME": "MR SPECIAL SUPERMARKETS INC", "ide": 416 }, "geometry": { "type": "Point", "coordinates": [ -67.05974578, 18.04658126 ] } },
{ "type": "Feature", "properties": { "COMPANY_NAME": "CASTILLO MINIMARKET", "ide": 417 }, "geometry": { "type": "Point", "coordinates": [ -66.88144683, 18.29544258 ] } },
{ "type": "Feature", "properties": { "COMPANY_NAME": "MI BARRIO MINIMARKET", "ide": 418 }, "geometry": { "type": "Point", "coordinates": [ -66.88144683, 18.29544258 ] } },
{ "type": "Feature", "properties": { "COMPANY_NAME": "SUPERMERCADO LAS MARIAS", "ide": 419 }, "geometry": { "type": "Point", "coordinates": [ -66.99117279, 18.25202369 ] } },
{ "type": "Feature", "properties": { "COMPANY_NAME": "MR SPECIAL SUPERMARKETS INC", "ide": 420 }, "geometry": { "type": "Point", "coordinates": [ -67.11374664, 18.39449119 ] } },
{ "type": "Feature", "properties": { "COMPANY_NAME": "COLMADO BRISAS DEL CAMPO", "ide": 421 }, "geometry": { "type": "Point", "coordinates": [ -67.11374664, 18.39449119 ] } },
{ "type": "Feature", "properties": { "COMPANY_NAME": "SUPERDESCUENTO QUEBRADILLAS", "ide": 422 }, "geometry": { "type": "Point", "coordinates": [ -66.9421997, 18.46595001 ] } },
{ "type": "Feature", "properties": { "COMPANY_NAME": "SUPER COLMADO LA FAMILIA", "ide": 423 }, "geometry": { "type": "Point", "coordinates": [ -67.13923645, 18.19213676 ] } },
{ "type": "Feature", "properties": { "COMPANY_NAME": "CARNICERIA NAPAO VELEZ INC", "ide": 424 }, "geometry": { "type": "Point", "coordinates": [ -67.13552093, 18.19928169 ] } },
{ "type": "Feature", "properties": { "COMPANY_NAME": "FRESH & GREEN", "ide": 425 }, "geometry": { "type": "Point", "coordinates": [ -67.13923645, 18.19213676 ] } },
{ "type": "Feature", "properties": { "COMPANY_NAME": "SUPERMERCADO PLACITA TOLIN", "ide": 426 }, "geometry": { "type": "Point", "coordinates": [ -67.05494689, 18.08473205 ] } },
{ "type": "Feature", "properties": { "COMPANY_NAME": "SUPERMERCADO MI GENTE", "ide": 427 }, "geometry": { "type": "Point", "coordinates": [ -67.04045104, 18.07723236 ] } },
{ "type": "Feature", "properties": { "COMPANY_NAME": "COLMADO LA FAMILIA", "ide": 428 }, "geometry": { "type": "Point", "coordinates": [ -66.40541076, 18.33917617 ] } },
{ "type": "Feature", "properties": { "COMPANY_NAME": "ECONO MENDEZ CLASS GROCERY", "ide": 429 }, "geometry": { "type": "Point", "coordinates": [ -66.32712554, 18.41960144 ] } },
{ "type": "Feature", "properties": { "COMPANY_NAME": "JUAN RIOS GROCERY", "ide": 430 }, "geometry": { "type": "Point", "coordinates": [ -66.33129882, 18.41290092 ] } },
{ "type": "Feature", "properties": { "COMPANY_NAME": "COLMADO D LA MARGINAL", "ide": 431 }, "geometry": { "type": "Point", "coordinates": [ -66.40278625, 18.44967269 ] } },
{ "type": "Feature", "properties": { "COMPANY_NAME": "SANTA ROSA MINIMARKET", "ide": 432 }, "geometry": { "type": "Point", "coordinates": [ -66.40278625, 18.44967269 ] } },
{ "type": "Feature", "properties": { "COMPANY_NAME": "SUPERMERCADO ECONO", "ide": 433 }, "geometry": { "type": "Point", "coordinates": [ -66.40278625, 18.44967269 ] } },
{ "type": "Feature", "properties": { "COMPANY_NAME": "COLMADO GELO BURGOS", "ide": 434 }, "geometry": { "type": "Point", "coordinates": [ -66.85714721, 18.02775955 ] } },
{ "type": "Feature", "properties": { "COMPANY_NAME": "SUPERMERCADO AGUEYBANA INC", "ide": 435 }, "geometry": { "type": "Point", "coordinates": [ -66.85714721, 18.02775955 ] } },
{ "type": "Feature", "properties": { "COMPANY_NAME": "SUPER DANNY'S MARKET", "ide": 436 }, "geometry": { "type": "Point", "coordinates": [ -65.89869689, 18.00752449 ] } },
{ "type": "Feature", "properties": { "COMPANY_NAME": "COLMADO EL PRINCIPAL", "ide": 437 }, "geometry": { "type": "Point", "coordinates": [ -66.0621643, 17.96410942 ] } },
{ "type": "Feature", "properties": { "COMPANY_NAME": "COLMADO TORRES", "ide": 438 }, "geometry": { "type": "Point", "coordinates": [ -66.0621643, 17.96410942 ] } },
{ "type": "Feature", "properties": { "COMPANY_NAME": "PEDRO RENTAS GROCERY", "ide": 439 }, "geometry": { "type": "Point", "coordinates": [ -66.6109085, 18.00610733 ] } },
{ "type": "Feature", "properties": { "COMPANY_NAME": "SUPERMERCADOS ECONO NAGUABO", "ide": 440 }, "geometry": { "type": "Point", "coordinates": [ -65.7344284, 18.21009635 ] } },
{ "type": "Feature", "properties": { "COMPANY_NAME": "COLMADO EL SON DE LA LOMA", "ide": 441 }, "geometry": { "type": "Point", "coordinates": [ -66.24311065, 18.30065536 ] } },
{ "type": "Feature", "properties": { "COMPANY_NAME": "SUPER COLMADO ALVARADO", "ide": 442 }, "geometry": { "type": "Point", "coordinates": [ -66.24311065, 18.30065536 ] } },
{ "type": "Feature", "properties": { "COMPANY_NAME": "TORRES MINI MARKET", "ide": 443 }, "geometry": { "type": "Point", "coordinates": [ -66.39159393, 18.22693824 ] } },
{ "type": "Feature", "properties": { "COMPANY_NAME": "TORRES MINI MARKET", "ide": 444 }, "geometry": { "type": "Point", "coordinates": [ -66.39159393, 18.22693824 ] } },
{ "type": "Feature", "properties": { "COMPANY_NAME": "COLMADO CRUZ GROCERY", "ide": 445 }, "geometry": { "type": "Point", "coordinates": [ -66.01313781, 18.00680923 ] } },
{ "type": "Feature", "properties": { "COMPANY_NAME": "JULIO COLON MALDONAD COLMADO", "ide": 446 }, "geometry": { "type": "Point", "coordinates": [ -66.6493988, 18.04389953 ] } },
{ "type": "Feature", "properties": { "COMPANY_NAME": "IRIS D CANDELARIO NAZ GROCERY", "ide": 447 }, "geometry": { "type": "Point", "coordinates": [ -65.88415527, 18.37909507 ] } },
{ "type": "Feature", "properties": { "COMPANY_NAME": "COLMADO HERNANDEZ", "ide": 448 }, "geometry": { "type": "Point", "coordinates": [ -66.62739562, 18.10386085 ] } },
{ "type": "Feature", "properties": { "COMPANY_NAME": "COLMADO MORALES", "ide": 449 }, "geometry": { "type": "Point", "coordinates": [ -66.62739562, 18.10386085 ] } },
{ "type": "Feature", "properties": { "COMPANY_NAME": "LA FAMILIA SUPERMARKET 1 CORP", "ide": 450 }, "geometry": { "type": "Point", "coordinates": [ -65.65116882, 18.26692962 ] } },
{ "type": "Feature", "properties": { "COMPANY_NAME": "SUPERMERCADO MARTINEZ DE JESUS", "ide": 451 }, "geometry": { "type": "Point", "coordinates": [ -65.65863037, 18.322052 ] } },
{ "type": "Feature", "properties": { "COMPANY_NAME": "COLMADO MAIN GROCERY", "ide": 452 }, "geometry": { "type": "Point", "coordinates": [ -65.84066772, 18.37439918 ] } },
{ "type": "Feature", "properties": { "COMPANY_NAME": "ECONO RIO GRANDE", "ide": 453 }, "geometry": { "type": "Point", "coordinates": [ -65.87459564, 18.36842727 ] } },
{ "type": "Feature", "properties": { "COMPANY_NAME": "SUPERETTE RAUL", "ide": 454 }, "geometry": { "type": "Point", "coordinates": [ -66.49234771, 18.12724113 ] } },
{ "type": "Feature", "properties": { "COMPANY_NAME": "GARCIA APONTE CRUZ", "ide": 455 }, "geometry": { "type": "Point", "coordinates": [ -65.8810501, 18.04829978 ] } },
{ "type": "Feature", "properties": { "COMPANY_NAME": "COLMADO SANTIAGO", "ide": 456 }, "geometry": { "type": "Point", "coordinates": [ -66.36264038, 18.07596397 ] } },
{ "type": "Feature", "properties": { "COMPANY_NAME": "SUPERMERCADO LA COLINA", "ide": 457 }, "geometry": { "type": "Point", "coordinates": [ -66.22708892, 18.21822357 ] } },
{ "type": "Feature", "properties": { "COMPANY_NAME": "JORGE CORREA BERNIER GROCERY", "ide": 458 }, "geometry": { "type": "Point", "coordinates": [ -66.11762237, 17.98419189 ] } },
{ "type": "Feature", "properties": { "COMPANY_NAME": "SUPERMERCADOS PUEBLO GUAYAMA", "ide": 459 }, "geometry": { "type": "Point", "coordinates": [ -66.11762237, 17.98419189 ] } },
{ "type": "Feature", "properties": { "COMPANY_NAME": "COLMADO EL UNICO", "ide": 460 }, "geometry": { "type": "Point", "coordinates": [ -65.8297348, 18.15377807 ] } },
{ "type": "Feature", "properties": { "COMPANY_NAME": "COLMADO OLMEDA", "ide": 461 }, "geometry": { "type": "Point", "coordinates": [ -65.82406616, 18.12225723 ] } },
{ "type": "Feature", "properties": { "COMPANY_NAME": "RAMON ORTIZ ZENQUIZ GROCERY", "ide": 462 }, "geometry": { "type": "Point", "coordinates": [ -65.8297348, 18.15377807 ] } },
{ "type": "Feature", "properties": { "COMPANY_NAME": "COLMADO LA COOPERATIVA", "ide": 463 }, "geometry": { "type": "Point", "coordinates": [ -65.82406616, 18.12225723 ] } },
{ "type": "Feature", "properties": { "COMPANY_NAME": "SUPERMERCADO LA UNION DE TODOS", "ide": 464 }, "geometry": { "type": "Point", "coordinates": [ -66.30895233, 18.18540382 ] } },
{ "type": "Feature", "properties": { "COMPANY_NAME": "SUPERMERCADO LA VEGA", "ide": 465 }, "geometry": { "type": "Point", "coordinates": [ -66.30715942, 18.18531227 ] } },
{ "type": "Feature", "properties": { "COMPANY_NAME": "TORRES CINTRON CRUZ", "ide": 466 }, "geometry": { "type": "Point", "coordinates": [ -66.30895233, 18.18540382 ] } },
{ "type": "Feature", "properties": { "COMPANY_NAME": "SALAZAR SELF SVC", "ide": 467 }, "geometry": { "type": "Point", "coordinates": [ -66.0958023, 18.46318626 ] } },
{ "type": "Feature", "properties": { "COMPANY_NAME": "ROBERT GONZALEZ GROCERY", "ide": 468 }, "geometry": { "type": "Point", "coordinates": [ -66.06578063, 18.44345855 ] } },
{ "type": "Feature", "properties": { "COMPANY_NAME": "PUEBLO", "ide": 469 }, "geometry": { "type": "Point", "coordinates": [ -66.04265594, 18.45185089 ] } },
{ "type": "Feature", "properties": { "COMPANY_NAME": "JOANNA COLMADO GROCERY", "ide": 470 }, "geometry": { "type": "Point", "coordinates": [ -66.0484848, 18.43870925 ] } },
{ "type": "Feature", "properties": { "COMPANY_NAME": "MINIMARKET CALDERON", "ide": 471 }, "geometry": { "type": "Point", "coordinates": [ -66.05577087, 18.43605995 ] } },
{ "type": "Feature", "properties": { "COMPANY_NAME": "BORINQUEN SUPERETTE", "ide": 472 }, "geometry": { "type": "Point", "coordinates": [ -66.0579071, 18.43809509 ] } },
{ "type": "Feature", "properties": { "COMPANY_NAME": "MERCADO PUERTO RICO", "ide": 473 }, "geometry": { "type": "Point", "coordinates": [ -66.0510025, 18.44467926 ] } },
{ "type": "Feature", "properties": { "COMPANY_NAME": "SUPERMERCADO PLAZA PARIS", "ide": 474 }, "geometry": { "type": "Point", "coordinates": [ -66.04769897, 18.42379951 ] } },
{ "type": "Feature", "properties": { "COMPANY_NAME": "SUPERMERCADO MARITZA", "ide": 475 }, "geometry": { "type": "Point", "coordinates": [ -66.07923889, 18.41462707 ] } },
{ "type": "Feature", "properties": { "COMPANY_NAME": "EL BOHIO", "ide": 476 }, "geometry": { "type": "Point", "coordinates": [ -66.09790039, 18.3988552 ] } },
{ "type": "Feature", "properties": { "COMPANY_NAME": "MIGUEL A MARTINEZ GROCERY", "ide": 477 }, "geometry": { "type": "Point", "coordinates": [ -66.03531646, 18.39818382 ] } },
{ "type": "Feature", "properties": { "COMPANY_NAME": "MARRERO MINI MARKET", "ide": 478 }, "geometry": { "type": "Point", "coordinates": [ -66.0305252, 18.39749526 ] } },
{ "type": "Feature", "properties": { "COMPANY_NAME": "EL CAMPESINO", "ide": 479 }, "geometry": { "type": "Point", "coordinates": [ -66.05130004, 18.40069961 ] } },
{ "type": "Feature", "properties": { "COMPANY_NAME": "COLMADO LOS MUCHACHOS", "ide": 480 }, "geometry": { "type": "Point", "coordinates": [ -66.06647491, 18.3956604 ] } },
{ "type": "Feature", "properties": { "COMPANY_NAME": "DE TODO & ALGO MAS", "ide": 481 }, "geometry": { "type": "Point", "coordinates": [ -66.19004821, 18.43460845 ] } },
{ "type": "Feature", "properties": { "COMPANY_NAME": "SUPERMERCADO RAMOS", "ide": 482 }, "geometry": { "type": "Point", "coordinates": [ -66.19004821, 18.43460845 ] } },
{ "type": "Feature", "properties": { "COMPANY_NAME": "SUPERMERCADO TRES PALMAS", "ide": 483 }, "geometry": { "type": "Point", "coordinates": [ -66.24850463, 18.38677597 ] } },
{ "type": "Feature", "properties": { "COMPANY_NAME": "SUPERMERCADOS AMIGO", "ide": 484 }, "geometry": { "type": "Point", "coordinates": [ -66.1640625, 18.36730384 ] } },
{ "type": "Feature", "properties": { "COMPANY_NAME": "SUPERMERCADO PEDRITO", "ide": 485 }, "geometry": { "type": "Point", "coordinates": [ -66.18671417, 18.37244033 ] } },
{ "type": "Feature", "properties": { "COMPANY_NAME": "COLMADO CAFETIN SOFIAS", "ide": 486 }, "geometry": { "type": "Point", "coordinates": [ -66.18671417, 18.37244033 ] } },
{ "type": "Feature", "properties": { "COMPANY_NAME": "CORP PARA EL DESARROLLO", "ide": 487 }, "geometry": { "type": "Point", "coordinates": [ -66.15247344, 18.39084053 ] } },
{ "type": "Feature", "properties": { "COMPANY_NAME": "COLMADO SAN MARTIN", "ide": 488 }, "geometry": { "type": "Point", "coordinates": [ -66.15247344, 18.39084053 ] } },
{ "type": "Feature", "properties": { "COMPANY_NAME": "LUIS A GONZALEZ ORTIZ GROCERY", "ide": 489 }, "geometry": { "type": "Point", "coordinates": [ -66.15977478, 18.39900398 ] } },
{ "type": "Feature", "properties": { "COMPANY_NAME": "CARMEN B CHEVERE GROCERY", "ide": 490 }, "geometry": { "type": "Point", "coordinates": [ -66.1908493, 18.40895652 ] } },
{ "type": "Feature", "properties": { "COMPANY_NAME": "FREMART", "ide": 491 }, "geometry": { "type": "Point", "coordinates": [ -66.13165283, 18.4363842 ] } },
{ "type": "Feature", "properties": { "COMPANY_NAME": "CARNICERIA COLMADO VEGA", "ide": 492 }, "geometry": { "type": "Point", "coordinates": [ -66.12142181, 18.43934822 ] } },
{ "type": "Feature", "properties": { "COMPANY_NAME": "COLMADO EL POPULAR", "ide": 493 }, "geometry": { "type": "Point", "coordinates": [ -66.11808776, 18.44115257 ] } },
{ "type": "Feature", "properties": { "COMPANY_NAME": "TITI GUAY GROCERY", "ide": 494 }, "geometry": { "type": "Point", "coordinates": [ -66.13165283, 18.4363842 ] } },
{ "type": "Feature", "properties": { "COMPANY_NAME": "PLACITA ESMERALDA", "ide": 495 }, "geometry": { "type": "Point", "coordinates": [ -66.10264587, 18.37205886 ] } },
{ "type": "Feature", "properties": { "COMPANY_NAME": "OSCAR DIAZ FUENTES GROCERY", "ide": 496 }, "geometry": { "type": "Point", "coordinates": [ -66.10814666, 18.36501121 ] } },
{ "type": "Feature", "properties": { "COMPANY_NAME": "LUCKY SEVEN MARTINEZ", "ide": 497 }, "geometry": { "type": "Point", "coordinates": [ -65.97277069, 18.31407928 ] } },
{ "type": "Feature", "properties": { "COMPANY_NAME": "COLMADO VIERA", "ide": 498 }, "geometry": { "type": "Point", "coordinates": [ -66.02291107, 18.36417198 ] } },
{ "type": "Feature", "properties": { "COMPANY_NAME": "COLMADO EL TRIUNFO", "ide": 499 }, "geometry": { "type": "Point", "coordinates": [ -65.95616912, 18.37980842 ] } },
{ "type": "Feature", "properties": { "COMPANY_NAME": "FARMACIA AMIGA & SUP CENTRO", "ide": 500 }, "geometry": { "type": "Point", "coordinates": [ -65.95616912, 18.37980842 ] } },
{ "type": "Feature", "properties": { "COMPANY_NAME": "COLMADO CAFETIN ERIC & MAGGIE", "ide": 501 }, "geometry": { "type": "Point", "coordinates": [ -67.14754486, 18.44618606 ] } },
{ "type": "Feature", "properties": { "COMPANY_NAME": "COLMADO DURAN", "ide": 502 }, "geometry": { "type": "Point", "coordinates": [ -67.13407135, 18.44034767 ] } },
{ "type": "Feature", "properties": { "COMPANY_NAME": "ANTONIO BONILLA ROMAN GROCERY", "ide": 503 }, "geometry": { "type": "Point", "coordinates": [ -67.14754486, 18.44618606 ] } },
{ "type": "Feature", "properties": { "COMPANY_NAME": "COLMADO LOPEZ", "ide": 504 }, "geometry": { "type": "Point", "coordinates": [ -66.98020172, 18.18128776 ] } },
{ "type": "Feature", "properties": { "COMPANY_NAME": "SUPERMERCADOS 4 CALLES", "ide": 505 }, "geometry": { "type": "Point", "coordinates": [ -66.72650146, 18.44861793 ] } },
{ "type": "Feature", "properties": { "COMPANY_NAME": "PUEBLO INC", "ide": 506 }, "geometry": { "type": "Point", "coordinates": [ -66.72650146, 18.44861793 ] } },
{ "type": "Feature", "properties": { "COMPANY_NAME": "COLMADO DORTA", "ide": 507 }, "geometry": { "type": "Point", "coordinates": [ -66.71784973, 18.47265243 ] } },
{ "type": "Feature", "properties": { "COMPANY_NAME": "SUPERMERCADO SELECTO ARECIBO", "ide": 508 }, "geometry": { "type": "Point", "coordinates": [ -66.72584533, 18.46965217 ] } },
{ "type": "Feature", "properties": { "COMPANY_NAME": "COLMADO ORTIZ", "ide": 509 }, "geometry": { "type": "Point", "coordinates": [ -67.15361785, 18.07863235 ] } },
{ "type": "Feature", "properties": { "COMPANY_NAME": "MR SPECIAL SUPERMARKETS INC", "ide": 510 }, "geometry": { "type": "Point", "coordinates": [ -67.15361785, 18.07863235 ] } },
{ "type": "Feature", "properties": { "COMPANY_NAME": "IRAIDA ORTIZ", "ide": 511 }, "geometry": { "type": "Point", "coordinates": [ -67.15361785, 18.07863235 ] } },
{ "type": "Feature", "properties": { "COMPANY_NAME": "COLMADO REX 2", "ide": 512 }, "geometry": { "type": "Point", "coordinates": [ -66.72114562, 18.05124092 ] } },
{ "type": "Feature", "properties": { "COMPANY_NAME": "COLMADO J K LA 456", "ide": 513 }, "geometry": { "type": "Point", "coordinates": [ -66.85016632, 18.47703933 ] } },
{ "type": "Feature", "properties": { "COMPANY_NAME": "QUEBRADA XTRA", "ide": 514 }, "geometry": { "type": "Point", "coordinates": [ -66.85016632, 18.47703933 ] } },
{ "type": "Feature", "properties": { "COMPANY_NAME": "CAMILO NEGRON LOPEZ GROCERY", "ide": 515 }, "geometry": { "type": "Point", "coordinates": [ -66.9578247, 18.07348442 ] } },
{ "type": "Feature", "properties": { "COMPANY_NAME": "SUPERMERCADO GELABERT", "ide": 516 }, "geometry": { "type": "Point", "coordinates": [ -66.9578247, 18.07348442 ] } },
{ "type": "Feature", "properties": { "COMPANY_NAME": "JONATHAN MERCADO JORGE", "ide": 517 }, "geometry": { "type": "Point", "coordinates": [ -66.96092224, 18.0769596 ] } },
{ "type": "Feature", "properties": { "COMPANY_NAME": "SUPERMERCADO DORADO", "ide": 518 }, "geometry": { "type": "Point", "coordinates": [ -66.25981903, 18.45828437 ] } },
{ "type": "Feature", "properties": { "COMPANY_NAME": "HAYDELIZ PARDO", "ide": 519 }, "geometry": { "type": "Point", "coordinates": [ -66.90795898, 17.97154045 ] } },
{ "type": "Feature", "properties": { "COMPANY_NAME": "COLMADO EL BATEY", "ide": 520 }, "geometry": { "type": "Point", "coordinates": [ -66.90795898, 17.97154045 ] } },
{ "type": "Feature", "properties": { "COMPANY_NAME": "COLMADO JAGUAS", "ide": 521 }, "geometry": { "type": "Point", "coordinates": [ -66.79233551, 18.02078056 ] } },
{ "type": "Feature", "properties": { "COMPANY_NAME": "SUPERMERCADO COOP PLAZA", "ide": 522 }, "geometry": { "type": "Point", "coordinates": [ -67.01992797, 18.49367904 ] } },
{ "type": "Feature", "properties": { "COMPANY_NAME": "RUBEN SUPERMARKET", "ide": 523 }, "geometry": { "type": "Point", "coordinates": [ -67.01992797, 18.49367904 ] } },
{ "type": "Feature", "properties": { "COMPANY_NAME": "COLMADO MAGUAYO", "ide": 524 }, "geometry": { "type": "Point", "coordinates": [ -67.05974578, 18.04658126 ] } },
{ "type": "Feature", "properties": { "COMPANY_NAME": "MR SPECIAL", "ide": 525 }, "geometry": { "type": "Point", "coordinates": [ -66.88144683, 18.29544258 ] } },
{ "type": "Feature", "properties": { "COMPANY_NAME": "SUPERMERCADO LAS CAMPANAS", "ide": 526 }, "geometry": { "type": "Point", "coordinates": [ -66.88144683, 18.29544258 ] } },
{ "type": "Feature", "properties": { "COMPANY_NAME": "COLMADO NUNEZ", "ide": 527 }, "geometry": { "type": "Point", "coordinates": [ -66.88144683, 18.29544258 ] } },
{ "type": "Feature", "properties": { "COMPANY_NAME": "COLMADO & PANADERIA EL BUFFALO", "ide": 528 }, "geometry": { "type": "Point", "coordinates": [ -66.88490295, 18.29369926 ] } },
{ "type": "Feature", "properties": { "COMPANY_NAME": "COLMADO MONTIJO", "ide": 529 }, "geometry": { "type": "Point", "coordinates": [ -66.48989868, 18.42970085 ] } },
{ "type": "Feature", "properties": { "COMPANY_NAME": "COMMERCIAL WILLIAM CRUZ INC", "ide": 530 }, "geometry": { "type": "Point", "coordinates": [ -67.14399719, 18.19958305 ] } },
{ "type": "Feature", "properties": { "COMPANY_NAME": "COLMADO EL BLANCO", "ide": 531 }, "geometry": { "type": "Point", "coordinates": [ -67.13005065, 18.19851684 ] } },
{ "type": "Feature", "properties": { "COMPANY_NAME": "MR FOOD MARK", "ide": 532 }, "geometry": { "type": "Point", "coordinates": [ -67.13923645, 18.19213676 ] } },
{ "type": "Feature", "properties": { "COMPANY_NAME": "IRIZARRY CASH & CARRY", "ide": 533 }, "geometry": { "type": "Point", "coordinates": [ -67.14320373, 18.20056724 ] } },
{ "type": "Feature", "properties": { "COMPANY_NAME": "MANANTIALES SUPERMARKET", "ide": 534 }, "geometry": { "type": "Point", "coordinates": [ -67.13552093, 18.19928169 ] } },
{ "type": "Feature", "properties": { "COMPANY_NAME": "COLMADO & BARRA MI CASITA", "ide": 535 }, "geometry": { "type": "Point", "coordinates": [ -67.05494689, 18.08473205 ] } },
{ "type": "Feature", "properties": { "COMPANY_NAME": "COLMADO HATO ARRIBA", "ide": 536 }, "geometry": { "type": "Point", "coordinates": [ -66.95519256, 18.27466392 ] } },
{ "type": "Feature", "properties": { "COMPANY_NAME": "JUAN R CORDERO CRUZ GROCERY", "ide": 537 }, "geometry": { "type": "Point", "coordinates": [ -66.40278625, 18.44967269 ] } },
{ "type": "Feature", "properties": { "COMPANY_NAME": "LA ESQUINA MINIMARKET", "ide": 538 }, "geometry": { "type": "Point", "coordinates": [ -66.40278625, 18.44967269 ] } },
{ "type": "Feature", "properties": { "COMPANY_NAME": "COLMADO CINTRON", "ide": 539 }, "geometry": { "type": "Point", "coordinates": [ -66.24311065, 18.30065536 ] } },
{ "type": "Feature", "properties": { "COMPANY_NAME": "ELIAS CHINEA NARVAEZ GROCERY", "ide": 540 }, "geometry": { "type": "Point", "coordinates": [ -66.24311065, 18.30065536 ] } },
{ "type": "Feature", "properties": { "COMPANY_NAME": "COLMADO RODRIGUEZ", "ide": 541 }, "geometry": { "type": "Point", "coordinates": [ -66.39159393, 18.22693824 ] } },
{ "type": "Feature", "properties": { "COMPANY_NAME": "NEDAL HAMAD", "ide": 542 }, "geometry": { "type": "Point", "coordinates": [ -66.39159393, 18.22693824 ] } },
{ "type": "Feature", "properties": { "COMPANY_NAME": "RIACHUELO FAMILIAR", "ide": 543 }, "geometry": { "type": "Point", "coordinates": [ -66.39159393, 18.22693824 ] } },
{ "type": "Feature", "properties": { "COMPANY_NAME": "COLMADO EL CAFE DEL CAMPO", "ide": 544 }, "geometry": { "type": "Point", "coordinates": [ -66.01032257, 18.0057373 ] } },
{ "type": "Feature", "properties": { "COMPANY_NAME": "VEGA SANTA GLORIA IRIS", "ide": 545 }, "geometry": { "type": "Point", "coordinates": [ -66.66379547, 18.03460121 ] } },
{ "type": "Feature", "properties": { "COMPANY_NAME": "LIZETTE RAMOS COLON GROCERY", "ide": 546 }, "geometry": { "type": "Point", "coordinates": [ -66.59773254, 18.04001045 ] } },
{ "type": "Feature", "properties": { "COMPANY_NAME": "COLMADITO DE LA 7", "ide": 547 }, "geometry": { "type": "Point", "coordinates": [ -66.63556671, 18.03682136 ] } },
{ "type": "Feature", "properties": { "COMPANY_NAME": "ALMACENES DIPINO", "ide": 548 }, "geometry": { "type": "Point", "coordinates": [ -66.62739562, 18.10386085 ] } },
{ "type": "Feature", "properties": { "COMPANY_NAME": "A CORDERO BADILLO", "ide": 549 }, "geometry": { "type": "Point", "coordinates": [ -66.62739562, 18.10386085 ] } },
{ "type": "Feature", "properties": { "COMPANY_NAME": "COLMADO & SPORT BAR SOTO", "ide": 550 }, "geometry": { "type": "Point", "coordinates": [ -65.6632843, 18.33653831 ] } },
{ "type": "Feature", "properties": { "COMPANY_NAME": "PLAZA GIGANTE", "ide": 551 }, "geometry": { "type": "Point", "coordinates": [ -65.87459564, 18.36842727 ] } },
{ "type": "Feature", "properties": { "COMPANY_NAME": "COLMADO & FERRETERIA CASTRO", "ide": 552 }, "geometry": { "type": "Point", "coordinates": [ -65.83175659, 18.37841606 ] } },
{ "type": "Feature", "properties": { "COMPANY_NAME": "COLMADO CAFETIN EL VERDE", "ide": 553 }, "geometry": { "type": "Point", "coordinates": [ -65.87459564, 18.36842727 ] } },
{ "type": "Feature", "properties": { "COMPANY_NAME": "ESTIBOLE", "ide": 554 }, "geometry": { "type": "Point", "coordinates": [ -65.8810501, 18.04829978 ] } },
{ "type": "Feature", "properties": { "COMPANY_NAME": "COLOMADO LOS HERMANOS", "ide": 555 }, "geometry": { "type": "Point", "coordinates": [ -65.8810501, 18.04829978 ] } },
{ "type": "Feature", "properties": { "COMPANY_NAME": "COLMADO LA NUEVA ALBORADA", "ide": 556 }, "geometry": { "type": "Point", "coordinates": [ -65.8800888, 18.43013381 ] } },
{ "type": "Feature", "properties": { "COMPANY_NAME": "COLMADO LA RAIZE", "ide": 557 }, "geometry": { "type": "Point", "coordinates": [ -66.55073547, 18.04889106 ] } },
{ "type": "Feature", "properties": { "COMPANY_NAME": "LA BODEGA MINI MARKET", "ide": 558 }, "geometry": { "type": "Point", "coordinates": [ -66.22708892, 18.21822357 ] } },
{ "type": "Feature", "properties": { "COMPANY_NAME": "COLMADO AGUIRRE", "ide": 559 }, "geometry": { "type": "Point", "coordinates": [ -66.11762237, 17.98419189 ] } },
{ "type": "Feature", "properties": { "COMPANY_NAME": "VILLODA SUPERET", "ide": 560 }, "geometry": { "type": "Point", "coordinates": [ -66.11762237, 17.98419189 ] } },
{ "type": "Feature", "properties": { "COMPANY_NAME": "COLMADO DE ARMAS", "ide": 561 }, "geometry": { "type": "Point", "coordinates": [ -66.12637329, 17.97480392 ] } },
{ "type": "Feature", "properties": { "COMPANY_NAME": "SUPERMERCADO DEL ESTE", "ide": 562 }, "geometry": { "type": "Point", "coordinates": [ -65.82406616, 18.12225723 ] } },
{ "type": "Feature", "properties": { "COMPANY_NAME": "SUPERMERCADO BORINQUEN", "ide": 563 }, "geometry": { "type": "Point", "coordinates": [ -65.82412719, 18.15821647 ] } },
{ "type": "Feature", "properties": { "COMPANY_NAME": "JUAN SANTOS RIVERA GROCERY", "ide": 564 }, "geometry": { "type": "Point", "coordinates": [ -66.30895233, 18.18540382 ] } },
{ "type": "Feature", "properties": { "COMPANY_NAME": "SUPERCOLMADO LOPEZ", "ide": 565 }, "geometry": { "type": "Point", "coordinates": [ -66.30895233, 18.18540382 ] } },
{ "type": "Feature", "properties": { "COMPANY_NAME": "COLMADO EMILY", "ide": 566 }, "geometry": { "type": "Point", "coordinates": [ -66.30895233, 18.18540382 ] } },
{ "type": "Feature", "properties": { "COMPANY_NAME": "WALLY COLMADO", "ide": 567 }, "geometry": { "type": "Point", "coordinates": [ -66.49842834, 18.00075531 ] } },
{ "type": "Feature", "properties": { "COMPANY_NAME": "ALFREDO SANTIAGO CINTRON", "ide": 568 }, "geometry": { "type": "Point", "coordinates": [ -66.49842834, 18.00075531 ] } },
{ "type": "Feature", "properties": { "COMPANY_NAME": "GUAYABAL CASH N CARRY", "ide": 569 }, "geometry": { "type": "Point", "coordinates": [ -66.49842834, 18.00075531 ] } },
{ "type": "Feature", "properties": { "COMPANY_NAME": "EROS FOOD MARKET", "ide": 570 }, "geometry": { "type": "Point", "coordinates": [ -66.06865692, 18.45517921 ] } },
{ "type": "Feature", "properties": { "COMPANY_NAME": "COLMADO SAN MIGUEL", "ide": 571 }, "geometry": { "type": "Point", "coordinates": [ -66.08071899, 18.44669914 ] } },
{ "type": "Feature", "properties": { "COMPANY_NAME": "SUPER BABY FOOD SANTURCE", "ide": 572 }, "geometry": { "type": "Point", "coordinates": [ -66.07901763, 18.44767951 ] } },
{ "type": "Feature", "properties": { "COMPANY_NAME": "PABLO MPUONG GROCERY", "ide": 573 }, "geometry": { "type": "Point", "coordinates": [ -66.07685852, 18.44748878 ] } },
{ "type": "Feature", "properties": { "COMPANY_NAME": "METRO FILERS INC", "ide": 574 }, "geometry": { "type": "Point", "coordinates": [ -66.0500946, 18.44043159 ] } },
{ "type": "Feature", "properties": { "COMPANY_NAME": "SUPER MERCADO FANCO MI FAMILIA", "ide": 575 }, "geometry": { "type": "Point", "coordinates": [ -66.05280303, 18.43694686 ] } },
{ "type": "Feature", "properties": { "COMPANY_NAME": "PUEBLO", "ide": 576 }, "geometry": { "type": "Point", "coordinates": [ -66.06970977, 18.4271202 ] } },
{ "type": "Feature", "properties": { "COMPANY_NAME": "COLMADO COLON CLASS", "ide": 577 }, "geometry": { "type": "Point", "coordinates": [ -66.09790039, 18.3988552 ] } },
{ "type": "Feature", "properties": { "COMPANY_NAME": "COLMADO LOS TRES VILLALOBOS", "ide": 578 }, "geometry": { "type": "Point", "coordinates": [ -66.08557891, 18.41514778 ] } },
{ "type": "Feature", "properties": { "COMPANY_NAME": "KEYLA & DISSY", "ide": 579 }, "geometry": { "type": "Point", "coordinates": [ -66.09790039, 18.3988552 ] } },
{ "type": "Feature", "properties": { "COMPANY_NAME": "RAYSA MARTINEZ GROCERY", "ide": 580 }, "geometry": { "type": "Point", "coordinates": [ -66.09790039, 18.3988552 ] } },
{ "type": "Feature", "properties": { "COMPANY_NAME": "COLMADO LA FAMILIA", "ide": 581 }, "geometry": { "type": "Point", "coordinates": [ -66.05328369, 18.36864471 ] } },
{ "type": "Feature", "properties": { "COMPANY_NAME": "SUPERMERCADO JUNIOR", "ide": 582 }, "geometry": { "type": "Point", "coordinates": [ -66.06935882, 18.39535331 ] } },
{ "type": "Feature", "properties": { "COMPANY_NAME": "COLMADO SERRANO", "ide": 583 }, "geometry": { "type": "Point", "coordinates": [ -66.212471, 18.41896438 ] } },
{ "type": "Feature", "properties": { "COMPANY_NAME": "COLMADO 4 ESQUINAS", "ide": 584 }, "geometry": { "type": "Point", "coordinates": [ -66.19004821, 18.43460845 ] } },
{ "type": "Feature", "properties": { "COMPANY_NAME": "CARLY XTRA", "ide": 585 }, "geometry": { "type": "Point", "coordinates": [ -66.24850463, 18.38677597 ] } },
{ "type": "Feature", "properties": { "COMPANY_NAME": "LA PLATA MINIMARKET", "ide": 586 }, "geometry": { "type": "Point", "coordinates": [ -66.24850463, 18.38677597 ] } },
{ "type": "Feature", "properties": { "COMPANY_NAME": "PLAZA GIGANTE DE MAGNOLIA", "ide": 587 }, "geometry": { "type": "Point", "coordinates": [ -66.15247344, 18.39084053 ] } },
{ "type": "Feature", "properties": { "COMPANY_NAME": "SUPERMERCADO SANTA ROSA", "ide": 588 }, "geometry": { "type": "Point", "coordinates": [ -66.15247344, 18.39084053 ] } },
{ "type": "Feature", "properties": { "COMPANY_NAME": "COLMADO CAFETIN FRANYELIS", "ide": 589 }, "geometry": { "type": "Point", "coordinates": [ -66.02291107, 18.36417198 ] } },
{ "type": "Feature", "properties": { "COMPANY_NAME": "COLMADO EL GLOBO", "ide": 590 }, "geometry": { "type": "Point", "coordinates": [ -66.02291107, 18.36417198 ] } },