{
"type": "FeatureCollection",
"name": "instreligiosa",
"features": [
{ "type": "Feature", "properties": { "COMPANY_NAME": "CEJ Inc", "ide": 0 }, "geometry": { "type": "Point", "coordinates": [ -66.726502, 18.448618 ] } },
{ "type": "Feature", "properties": { "COMPANY_NAME": "Igl Renacer Esperanza", "ide": 1 }, "geometry": { "type": "Point", "coordinates": [ -66.022914, 18.364172 ] } },
{ "type": "Feature", "properties": { "COMPANY_NAME": "T & Health", "ide": 2 }, "geometry": { "type": "Point", "coordinates": [ -66.005347, 18.43075 ] } },
{ "type": "Feature", "properties": { "COMPANY_NAME": "Alianza Cristiana & Misionera", "ide": 3 }, "geometry": { "type": "Point", "coordinates": [ -66.108142, 18.365013 ] } },
{ "type": "Feature", "properties": { "COMPANY_NAME": "Asociacion Adventista", "ide": 4 }, "geometry": { "type": "Point", "coordinates": [ -67.13924, 18.192137 ] } },
{ "type": "Feature", "properties": { "COMPANY_NAME": "Casa Restauracion Las Manos", "ide": 5 }, "geometry": { "type": "Point", "coordinates": [ -66.481241, 18.429814 ] } },
{ "type": "Feature", "properties": { "COMPANY_NAME": "Cong Testigos Jehova", "ide": 6 }, "geometry": { "type": "Point", "coordinates": [ -67.016501, 18.495307 ] } },
{ "type": "Feature", "properties": { "COMPANY_NAME": "Centro Evangelistico", "ide": 7 }, "geometry": { "type": "Point", "coordinates": [ -66.088623, 18.399214 ] } },
{ "type": "Feature", "properties": { "COMPANY_NAME": "Casa Parroquial Madre De La", "ide": 8 }, "geometry": { "type": "Point", "coordinates": [ -66.108142, 18.365013 ] } },
{ "type": "Feature", "properties": { "COMPANY_NAME": "Casa Adoraciion Restaurados", "ide": 9 }, "geometry": { "type": "Point", "coordinates": [ -65.734432, 18.210097 ] } },
{ "type": "Feature", "properties": { "COMPANY_NAME": "Congregacion Flamboyan Testigo", "ide": 10 }, "geometry": { "type": "Point", "coordinates": [ -66.481241, 18.429814 ] } },
{ "type": "Feature", "properties": { "COMPANY_NAME": "Iglesia Cristiana", "ide": 11 }, "geometry": { "type": "Point", "coordinates": [ -66.152472, 18.39084 ] } },
{ "type": "Feature", "properties": { "COMPANY_NAME": "Iglesia Alianza", "ide": 12 }, "geometry": { "type": "Point", "coordinates": [ -65.956169, 18.379809 ] } },
{ "type": "Feature", "properties": { "COMPANY_NAME": "Iglesia Betania 2", "ide": 13 }, "geometry": { "type": "Point", "coordinates": [ -65.956169, 18.379809 ] } },
{ "type": "Feature", "properties": { "COMPANY_NAME": "Iglesia Menonita", "ide": 14 }, "geometry": { "type": "Point", "coordinates": [ -66.10177, 18.397407 ] } },
{ "type": "Feature", "properties": { "COMPANY_NAME": "Igleisa Carismatica Liberados", "ide": 15 }, "geometry": { "type": "Point", "coordinates": [ -66.850169, 18.477039 ] } },
{ "type": "Feature", "properties": { "COMPANY_NAME": "Iglesia Carismatica Cristiana", "ide": 16 }, "geometry": { "type": "Point", "coordinates": [ -67.147543, 18.446186 ] } },
{ "type": "Feature", "properties": { "COMPANY_NAME": "Iglesia Del Valle", "ide": 17 }, "geometry": { "type": "Point", "coordinates": [ -65.884156, 18.379095 ] } },
{ "type": "Feature", "properties": { "COMPANY_NAME": "Iglesia Carismatica", "ide": 18 }, "geometry": { "type": "Point", "coordinates": [ -67.184182, 18.382524 ] } },
{ "type": "Feature", "properties": { "COMPANY_NAME": "Iglesia De Jesus El Salvador", "ide": 19 }, "geometry": { "type": "Point", "coordinates": [ -65.884156, 18.379095 ] } },
{ "type": "Feature", "properties": { "COMPANY_NAME": "Iglesia Pentecostal Mahanaim", "ide": 20 }, "geometry": { "type": "Point", "coordinates": [ -66.010319, 18.005738 ] } },
{ "type": "Feature", "properties": { "COMPANY_NAME": "Iglesia Tabernaculo-Santidad", "ide": 21 }, "geometry": { "type": "Point", "coordinates": [ -66.402787, 18.449671 ] } },
{ "type": "Feature", "properties": { "COMPANY_NAME": "Iglesia Cristiana Catacumba", "ide": 22 }, "geometry": { "type": "Point", "coordinates": [ -66.726502, 18.448618 ] } },
{ "type": "Feature", "properties": { "COMPANY_NAME": "Iglesia Cristiana La Vina", "ide": 23 }, "geometry": { "type": "Point", "coordinates": [ -67.13924, 18.192137 ] } },
{ "type": "Feature", "properties": { "COMPANY_NAME": "Iglesia Prebiterania", "ide": 24 }, "geometry": { "type": "Point", "coordinates": [ -67.147543, 18.446186 ] } },
{ "type": "Feature", "properties": { "COMPANY_NAME": "Iglesia De Restauracion", "ide": 25 }, "geometry": { "type": "Point", "coordinates": [ -66.402787, 18.449671 ] } },
{ "type": "Feature", "properties": { "COMPANY_NAME": "Iglesia Ciudad De Adoracion", "ide": 26 }, "geometry": { "type": "Point", "coordinates": [ -67.147543, 18.446186 ] } },
{ "type": "Feature", "properties": { "COMPANY_NAME": "Iglesia Fuente De Verdad Inc", "ide": 27 }, "geometry": { "type": "Point", "coordinates": [ -67.147543, 18.446186 ] } },
{ "type": "Feature", "properties": { "COMPANY_NAME": "Iglesia Metodista De San Juan", "ide": 28 }, "geometry": { "type": "Point", "coordinates": [ -66.052291, 18.405858 ] } },
{ "type": "Feature", "properties": { "COMPANY_NAME": "Iglesia Bautista Vii", "ide": 29 }, "geometry": { "type": "Point", "coordinates": [ -65.883672, 18.387806 ] } },
{ "type": "Feature", "properties": { "COMPANY_NAME": "Iglesia Cristiana Discipulos", "ide": 30 }, "geometry": { "type": "Point", "coordinates": [ -66.156593, 18.40706 ] } },
{ "type": "Feature", "properties": { "COMPANY_NAME": "Iglesia Union Cristiana", "ide": 31 }, "geometry": { "type": "Point", "coordinates": [ -66.186713, 18.372441 ] } },
{ "type": "Feature", "properties": { "COMPANY_NAME": "Iglesia Cristiana Ciu", "ide": 32 }, "geometry": { "type": "Point", "coordinates": [ -67.113748, 18.394491 ] } },
{ "type": "Feature", "properties": { "COMPANY_NAME": "Iglesia Cristo Te Llama", "ide": 33 }, "geometry": { "type": "Point", "coordinates": [ -66.402787, 18.449671 ] } },
{ "type": "Feature", "properties": { "COMPANY_NAME": "Iglesia Metodista Alfa & Omega", "ide": 34 }, "geometry": { "type": "Point", "coordinates": [ -66.809033, 18.482204 ] } },
{ "type": "Feature", "properties": { "COMPANY_NAME": "Iglesia Rey De Salem", "ide": 35 }, "geometry": { "type": "Point", "coordinates": [ -66.152472, 18.39084 ] } },
{ "type": "Feature", "properties": { "COMPANY_NAME": "Iglesia De Cristo En Bayamon", "ide": 36 }, "geometry": { "type": "Point", "coordinates": [ -66.152472, 18.39084 ] } },
{ "type": "Feature", "properties": { "COMPANY_NAME": "Iglesia Metodista Unida El", "ide": 37 }, "geometry": { "type": "Point", "coordinates": [ -66.726502, 18.448618 ] } },
{ "type": "Feature", "properties": { "COMPANY_NAME": "Iglesia Asamblea Pentecostal", "ide": 38 }, "geometry": { "type": "Point", "coordinates": [ -66.809033, 18.482204 ] } },
{ "type": "Feature", "properties": { "COMPANY_NAME": "Iglesia Renacimiento", "ide": 39 }, "geometry": { "type": "Point", "coordinates": [ -66.152472, 18.39084 ] } },
{ "type": "Feature", "properties": { "COMPANY_NAME": "Iglesia Cristiana Robles De", "ide": 40 }, "geometry": { "type": "Point", "coordinates": [ -66.108142, 18.365013 ] } },
{ "type": "Feature", "properties": { "COMPANY_NAME": "Iglesia Valle De Saron", "ide": 41 }, "geometry": { "type": "Point", "coordinates": [ -65.724069, 18.373307 ] } },
{ "type": "Feature", "properties": { "COMPANY_NAME": "Iglesia De Dios Pentecostal", "ide": 42 }, "geometry": { "type": "Point", "coordinates": [ -65.956169, 18.379809 ] } },
{ "type": "Feature", "properties": { "COMPANY_NAME": "Iglesia De Dios Pentecostal", "ide": 43 }, "geometry": { "type": "Point", "coordinates": [ -66.857146, 18.027761 ] } },
{ "type": "Feature", "properties": { "COMPANY_NAME": "Iglesia De Dios Pentecostal", "ide": 44 }, "geometry": { "type": "Point", "coordinates": [ -66.726502, 18.448618 ] } },
{ "type": "Feature", "properties": { "COMPANY_NAME": "Iglesia De Dios Pentecostal Mi", "ide": 45 }, "geometry": { "type": "Point", "coordinates": [ -66.809033, 18.482204 ] } },
{ "type": "Feature", "properties": { "COMPANY_NAME": "Iglesia De Dios Pentecostal", "ide": 46 }, "geometry": { "type": "Point", "coordinates": [ -66.153239, 18.374234 ] } },
{ "type": "Feature", "properties": { "COMPANY_NAME": "Iglesia De Jesucristo De Los", "ide": 47 }, "geometry": { "type": "Point", "coordinates": [ -66.62053, 18.005615 ] } },
{ "type": "Feature", "properties": { "COMPANY_NAME": "Iglesia De Diso Pentecostal", "ide": 48 }, "geometry": { "type": "Point", "coordinates": [ -66.850169, 18.477039 ] } },
{ "type": "Feature", "properties": { "COMPANY_NAME": "Iglesia De Dios Pentecostal", "ide": 49 }, "geometry": { "type": "Point", "coordinates": [ -67.147543, 18.446186 ] } },
{ "type": "Feature", "properties": { "COMPANY_NAME": "Iglesia De Dios Pentecostal", "ide": 50 }, "geometry": { "type": "Point", "coordinates": [ -66.726502, 18.448618 ] } },
{ "type": "Feature", "properties": { "COMPANY_NAME": "Iglesia De Dios Pentecostal", "ide": 51 }, "geometry": { "type": "Point", "coordinates": [ -66.726502, 18.448618 ] } },
{ "type": "Feature", "properties": { "COMPANY_NAME": "Iglesia De Dios Pentecostal", "ide": 52 }, "geometry": { "type": "Point", "coordinates": [ -66.850169, 18.477039 ] } },
{ "type": "Feature", "properties": { "COMPANY_NAME": "Iglesia De Dios Pentecostal", "ide": 53 }, "geometry": { "type": "Point", "coordinates": [ -66.108142, 18.365013 ] } },
{ "type": "Feature", "properties": { "COMPANY_NAME": "Iglesia De Dios Pentecostal", "ide": 54 }, "geometry": { "type": "Point", "coordinates": [ -66.850169, 18.477039 ] } },
{ "type": "Feature", "properties": { "COMPANY_NAME": "Iglesia Arca De Salvacion", "ide": 55 }, "geometry": { "type": "Point", "coordinates": [ -66.726502, 18.448618 ] } },
{ "type": "Feature", "properties": { "COMPANY_NAME": "Iglesia Adventista Borinquen", "ide": 56 }, "geometry": { "type": "Point", "coordinates": [ -67.147543, 18.446186 ] } },
{ "type": "Feature", "properties": { "COMPANY_NAME": "Iglesia Evangelica Cristo", "ide": 57 }, "geometry": { "type": "Point", "coordinates": [ -66.809033, 18.482204 ] } },
{ "type": "Feature", "properties": { "COMPANY_NAME": "Iglesia Corbertura De Dios", "ide": 58 }, "geometry": { "type": "Point", "coordinates": [ -66.164281, 18.379883 ] } },
{ "type": "Feature", "properties": { "COMPANY_NAME": "Iglesia La Familia De La Fe", "ide": 59 }, "geometry": { "type": "Point", "coordinates": [ -66.152472, 18.39084 ] } },
{ "type": "Feature", "properties": { "COMPANY_NAME": "Igleisa Defensores De La Fe", "ide": 60 }, "geometry": { "type": "Point", "coordinates": [ -65.956169, 18.379809 ] } },
{ "type": "Feature", "properties": { "COMPANY_NAME": "Iglesia Evangelica Ebenezer", "ide": 61 }, "geometry": { "type": "Point", "coordinates": [ -65.956169, 18.379809 ] } },
{ "type": "Feature", "properties": { "COMPANY_NAME": "Igelsia Evangelica Unida De", "ide": 62 }, "geometry": { "type": "Point", "coordinates": [ -66.088808, 18.392617 ] } },
{ "type": "Feature", "properties": { "COMPANY_NAME": "Iglesia Evangelica Unida De", "ide": 63 }, "geometry": { "type": "Point", "coordinates": [ -65.824062, 18.122258 ] } },
{ "type": "Feature", "properties": { "COMPANY_NAME": "Iglesia Evangelica Unida De", "ide": 64 }, "geometry": { "type": "Point", "coordinates": [ -65.654394, 18.332087 ] } },
{ "type": "Feature", "properties": { "COMPANY_NAME": "Iglesia Evangelica Unida De", "ide": 65 }, "geometry": { "type": "Point", "coordinates": [ -65.724069, 18.373307 ] } },
{ "type": "Feature", "properties": { "COMPANY_NAME": "Iglesia Evangelica Vida Nueva", "ide": 66 }, "geometry": { "type": "Point", "coordinates": [ -65.880088, 18.430134 ] } },
{ "type": "Feature", "properties": { "COMPANY_NAME": "Jewish Reform Congregation", "ide": 67 }, "geometry": { "type": "Point", "coordinates": [ -66.061587, 18.451784 ] } },
{ "type": "Feature", "properties": { "COMPANY_NAME": "La Ciudad El Retiro", "ide": 68 }, "geometry": { "type": "Point", "coordinates": [ -66.082398, 18.416825 ] } },
{ "type": "Feature", "properties": { "COMPANY_NAME": "Ministerio Senal De Vida", "ide": 69 }, "geometry": { "type": "Point", "coordinates": [ -66.391592, 18.226938 ] } },
{ "type": "Feature", "properties": { "COMPANY_NAME": "Ministerio Cristiano", "ide": 70 }, "geometry": { "type": "Point", "coordinates": [ -67.147543, 18.446186 ] } },
{ "type": "Feature", "properties": { "COMPANY_NAME": "Oasis De Amor & Restauracion", "ide": 71 }, "geometry": { "type": "Point", "coordinates": [ -66.487594, 18.426363 ] } },
{ "type": "Feature", "properties": { "COMPANY_NAME": "Padres Escolopios", "ide": 72 }, "geometry": { "type": "Point", "coordinates": [ -66.613229, 18.007485 ] } },
{ "type": "Feature", "properties": { "COMPANY_NAME": "Parroquia Nuestra Senora Del", "ide": 73 }, "geometry": { "type": "Point", "coordinates": [ -65.884156, 18.379095 ] } },
{ "type": "Feature", "properties": { "COMPANY_NAME": "Parroquia Nuestra Senora De", "ide": 74 }, "geometry": { "type": "Point", "coordinates": [ -66.391592, 18.226938 ] } },
{ "type": "Feature", "properties": { "COMPANY_NAME": "Primera Iglesia Bautista", "ide": 75 }, "geometry": { "type": "Point", "coordinates": [ -65.654394, 18.332087 ] } },
{ "type": "Feature", "properties": { "COMPANY_NAME": "Secretario Diocesano Cursillos", "ide": 76 }, "geometry": { "type": "Point", "coordinates": [ -66.627393, 18.103859 ] } },
{ "type": "Feature", "properties": { "COMPANY_NAME": "Team Jesus H D", "ide": 77 }, "geometry": { "type": "Point", "coordinates": [ -66.612741, 18.012858 ] } },
{ "type": "Feature", "properties": { "COMPANY_NAME": "Centro De Evangelica", "ide": 78 }, "geometry": { "type": "Point", "coordinates": [ -66.088808, 18.392617 ] } },
{ "type": "Feature", "properties": { "COMPANY_NAME": "Iglesia De Cristo Misionera", "ide": 79 }, "geometry": { "type": "Point", "coordinates": [ -66.01911, 18.394339 ] } },
{ "type": "Feature", "properties": { "COMPANY_NAME": "Religiosas Teatinas", "ide": 80 }, "geometry": { "type": "Point", "coordinates": [ -66.055089, 18.40075 ] } },
{ "type": "Feature", "properties": { "COMPANY_NAME": "Iglesia Universal Jesucristo", "ide": 81 }, "geometry": { "type": "Point", "coordinates": [ -65.874593, 18.368429 ] } },
{ "type": "Feature", "properties": { "COMPANY_NAME": "Ministerio Cristiano", "ide": 82 }, "geometry": { "type": "Point", "coordinates": [ -67.054948, 18.084731 ] } },
{ "type": "Feature", "properties": { "COMPANY_NAME": "Iglesia De Dios Pentecostal", "ide": 83 }, "geometry": { "type": "Point", "coordinates": [ -66.955194, 18.274665 ] } },
{ "type": "Feature", "properties": { "COMPANY_NAME": "Parroquia Nuetra Senora", "ide": 84 }, "geometry": { "type": "Point", "coordinates": [ -66.541788, 18.437846 ] } },
{ "type": "Feature", "properties": { "COMPANY_NAME": "Iglesias Defensores De La Fe", "ide": 85 }, "geometry": { "type": "Point", "coordinates": [ -66.022914, 18.364172 ] } },
{ "type": "Feature", "properties": { "COMPANY_NAME": "Iglesia Misionera Jesus Cristo", "ide": 86 }, "geometry": { "type": "Point", "coordinates": [ -66.022914, 18.364172 ] } },
{ "type": "Feature", "properties": { "COMPANY_NAME": "Iglesia Cristiana Pentecostes", "ide": 87 }, "geometry": { "type": "Point", "coordinates": [ -66.022914, 18.364172 ] } },
{ "type": "Feature", "properties": { "COMPANY_NAME": "Iglesia De Dios Pentecostal", "ide": 88 }, "geometry": { "type": "Point", "coordinates": [ -66.022914, 18.364172 ] } },
{ "type": "Feature", "properties": { "COMPANY_NAME": "Iglesia Bautista Luz De Slvcn", "ide": 89 }, "geometry": { "type": "Point", "coordinates": [ -66.022914, 18.364172 ] } },
{ "type": "Feature", "properties": { "COMPANY_NAME": "Primera Iglesia Bautista De", "ide": 90 }, "geometry": { "type": "Point", "coordinates": [ -66.031031, 18.233834 ] } },
{ "type": "Feature", "properties": { "COMPANY_NAME": "Freddie Delgado", "ide": 91 }, "geometry": { "type": "Point", "coordinates": [ -66.048001, 18.439347 ] } },
{ "type": "Feature", "properties": { "COMPANY_NAME": "General M Hospital", "ide": 92 }, "geometry": { "type": "Point", "coordinates": [ -66.264766, 18.139812 ] } },
{ "type": "Feature", "properties": { "COMPANY_NAME": "General M Hosp", "ide": 93 }, "geometry": { "type": "Point", "coordinates": [ -66.166238, 18.113473 ] } },
{ "type": "Feature", "properties": { "COMPANY_NAME": "Iglesia Alianza Cristiana", "ide": 94 }, "geometry": { "type": "Point", "coordinates": [ -66.809033, 18.482204 ] } },
{ "type": "Feature", "properties": { "COMPANY_NAME": "Jose D Valdes-Fernand", "ide": 95 }, "geometry": { "type": "Point", "coordinates": [ -66.03902, 18.398969 ] } },
{ "type": "Feature", "properties": { "COMPANY_NAME": "Madeline Alvarado", "ide": 96 }, "geometry": { "type": "Point", "coordinates": [ -66.108142, 18.365013 ] } },
{ "type": "Feature", "properties": { "COMPANY_NAME": "Ruben Jesus Santiago-Lugo", "ide": 97 }, "geometry": { "type": "Point", "coordinates": [ -66.154718, 18.392713 ] } },
{ "type": "Feature", "properties": { "COMPANY_NAME": "Primera Iglesia Asamblea De Ds", "ide": 98 }, "geometry": { "type": "Point", "coordinates": [ -67.0418, 18.082884 ] } },
{ "type": "Feature", "properties": { "COMPANY_NAME": "Euri D Fernandez Nune", "ide": 99 }, "geometry": { "type": "Point", "coordinates": [ -66.045168, 18.416591 ] } },
{ "type": "Feature", "properties": { "COMPANY_NAME": "Movimiento Cristiano El", "ide": 100 }, "geometry": { "type": "Point", "coordinates": [ -65.874593, 18.368429 ] } },
{ "type": "Feature", "properties": { "COMPANY_NAME": "Isla Verde Baptist Church", "ide": 101 }, "geometry": { "type": "Point", "coordinates": [ -66.032774, 18.443677 ] } },
{ "type": "Feature", "properties": { "COMPANY_NAME": "Primera Iglesia Bautista De", "ide": 102 }, "geometry": { "type": "Point", "coordinates": [ -66.051364, 18.39946 ] } },
{ "type": "Feature", "properties": { "COMPANY_NAME": "Jesus Cebollero Pere", "ide": 103 }, "geometry": { "type": "Point", "coordinates": [ -66.955194, 18.274665 ] } },
{ "type": "Feature", "properties": { "COMPANY_NAME": "Iglesia Cristiana Discipulos", "ide": 104 }, "geometry": { "type": "Point", "coordinates": [ -66.152472, 18.39084 ] } },
{ "type": "Feature", "properties": { "COMPANY_NAME": "Calero Presbyterian Church", "ide": 105 }, "geometry": { "type": "Point", "coordinates": [ -67.147543, 18.446186 ] } },
{ "type": "Feature", "properties": { "COMPANY_NAME": "Iglesia De Dios Pentecostal", "ide": 106 }, "geometry": { "type": "Point", "coordinates": [ -67.019926, 18.493679 ] } },
{ "type": "Feature", "properties": { "COMPANY_NAME": "Martinica Presbyterian Church", "ide": 107 }, "geometry": { "type": "Point", "coordinates": [ -67.147543, 18.446186 ] } },
{ "type": "Feature", "properties": { "COMPANY_NAME": "Iglesia Pentecostal Zion", "ide": 108 }, "geometry": { "type": "Point", "coordinates": [ -65.956008, 18.397948 ] } },
{ "type": "Feature", "properties": { "COMPANY_NAME": "Asociacion Adventista", "ide": 109 }, "geometry": { "type": "Point", "coordinates": [ -66.030908, 18.404799 ] } },
{ "type": "Feature", "properties": { "COMPANY_NAME": "Abad Sta Juanita", "ide": 110 }, "geometry": { "type": "Point", "coordinates": [ -66.152472, 18.39084 ] } },
{ "type": "Feature", "properties": { "COMPANY_NAME": "Alianza Cristiana Y Misionera", "ide": 111 }, "geometry": { "type": "Point", "coordinates": [ -66.168187, 18.374298 ] } },
{ "type": "Feature", "properties": { "COMPANY_NAME": "Alianza Cristiana & Misionera", "ide": 112 }, "geometry": { "type": "Point", "coordinates": [ -66.180057, 18.449988 ] } },
{ "type": "Feature", "properties": { "COMPANY_NAME": "Alianza Cristiana & Misionera", "ide": 113 }, "geometry": { "type": "Point", "coordinates": [ -66.09265, 18.384761 ] } },
{ "type": "Feature", "properties": { "COMPANY_NAME": "Alianza Cristiana & Misionera", "ide": 114 }, "geometry": { "type": "Point", "coordinates": [ -65.956169, 18.379809 ] } },
{ "type": "Feature", "properties": { "COMPANY_NAME": "Alianza Cristiana & Misionera", "ide": 115 }, "geometry": { "type": "Point", "coordinates": [ -66.061332, 18.438312 ] } },
{ "type": "Feature", "properties": { "COMPANY_NAME": "Alianza Cristiana & Misionera", "ide": 116 }, "geometry": { "type": "Point", "coordinates": [ -66.148169, 18.35149 ] } },
{ "type": "Feature", "properties": { "COMPANY_NAME": "Academia Discipulos De Cristo", "ide": 117 }, "geometry": { "type": "Point", "coordinates": [ -66.248507, 18.386777 ] } },
{ "type": "Feature", "properties": { "COMPANY_NAME": "Alianza Cristiana & Misionera", "ide": 118 }, "geometry": { "type": "Point", "coordinates": [ -66.402787, 18.449671 ] } },
{ "type": "Feature", "properties": { "COMPANY_NAME": "Altergarten Las Teresas Inc", "ide": 119 }, "geometry": { "type": "Point", "coordinates": [ -65.956169, 18.379809 ] } },
{ "type": "Feature", "properties": { "COMPANY_NAME": "Alianza Cristiana Misionera", "ide": 120 }, "geometry": { "type": "Point", "coordinates": [ -66.726502, 18.448618 ] } },
{ "type": "Feature", "properties": { "COMPANY_NAME": "Casa Adoracion & Restauracion", "ide": 121 }, "geometry": { "type": "Point", "coordinates": [ -66.32713, 18.419602 ] } },
{ "type": "Feature", "properties": { "COMPANY_NAME": "Iglesia De Jesuscristo De Los", "ide": 122 }, "geometry": { "type": "Point", "coordinates": [ -66.402787, 18.449671 ] } },
{ "type": "Feature", "properties": { "COMPANY_NAME": "Congregacion Central Testigos", "ide": 123 }, "geometry": { "type": "Point", "coordinates": [ -66.391592, 18.226938 ] } },
{ "type": "Feature", "properties": { "COMPANY_NAME": "Congregacion Testigos-Jehova", "ide": 124 }, "geometry": { "type": "Point", "coordinates": [ -66.243108, 18.300656 ] } },
{ "type": "Feature", "properties": { "COMPANY_NAME": "Iglesia De Jesucristo De Los", "ide": 125 }, "geometry": { "type": "Point", "coordinates": [ -65.824062, 18.122258 ] } },
{ "type": "Feature", "properties": { "COMPANY_NAME": "Primera Iglesia Bautista", "ide": 126 }, "geometry": { "type": "Point", "coordinates": [ -66.022914, 18.364172 ] } },
{ "type": "Feature", "properties": { "COMPANY_NAME": "Iglesia Cristiana Discipulos", "ide": 127 }, "geometry": { "type": "Point", "coordinates": [ -66.064759, 18.40626 ] } },
{ "type": "Feature", "properties": { "COMPANY_NAME": "Iglesia Cristo Verdad & Vida", "ide": 128 }, "geometry": { "type": "Point", "coordinates": [ -66.022914, 18.364172 ] } },
{ "type": "Feature", "properties": { "COMPANY_NAME": "Centro Cristiano De Adoracion", "ide": 129 }, "geometry": { "type": "Point", "coordinates": [ -66.152472, 18.39084 ] } },
{ "type": "Feature", "properties": { "COMPANY_NAME": "Iglesia De Dios De La Profecia", "ide": 130 }, "geometry": { "type": "Point", "coordinates": [ -66.022914, 18.364172 ] } },
{ "type": "Feature", "properties": { "COMPANY_NAME": "Iglesia Rayos De Esperanza", "ide": 131 }, "geometry": { "type": "Point", "coordinates": [ -65.956169, 18.379809 ] } },
{ "type": "Feature", "properties": { "COMPANY_NAME": "Congregacion Bucare-Testigos", "ide": 132 }, "geometry": { "type": "Point", "coordinates": [ -66.108142, 18.365013 ] } },
{ "type": "Feature", "properties": { "COMPANY_NAME": "Religiosos Terciarios", "ide": 133 }, "geometry": { "type": "Point", "coordinates": [ -66.075125, 18.45274 ] } },
{ "type": "Feature", "properties": { "COMPANY_NAME": "Iglesia Presbiteriana", "ide": 134 }, "geometry": { "type": "Point", "coordinates": [ -67.147543, 18.446186 ] } },
{ "type": "Feature", "properties": { "COMPANY_NAME": "Obispado De Ponce", "ide": 135 }, "geometry": { "type": "Point", "coordinates": [ -66.62042, 18.023474 ] } },
{ "type": "Feature", "properties": { "COMPANY_NAME": "Parroquia San Antonio", "ide": 136 }, "geometry": { "type": "Point", "coordinates": [ -66.908472, 17.973005 ] } },
{ "type": "Feature", "properties": { "COMPANY_NAME": "Torre Fuente Iglesia-La Ciudad", "ide": 137 }, "geometry": { "type": "Point", "coordinates": [ -66.269721, 17.99639 ] } },
{ "type": "Feature", "properties": { "COMPANY_NAME": "Ieglesia De Dios Pentecostal", "ide": 138 }, "geometry": { "type": "Point", "coordinates": [ -66.792338, 18.020781 ] } },
{ "type": "Feature", "properties": { "COMPANY_NAME": "Fiadah", "ide": 139 }, "geometry": { "type": "Point", "coordinates": [ -66.726502, 18.448618 ] } },
{ "type": "Feature", "properties": { "COMPANY_NAME": "Jesucristo El Senor Christian", "ide": 140 }, "geometry": { "type": "Point", "coordinates": [ -66.809033, 18.482204 ] } },
{ "type": "Feature", "properties": { "COMPANY_NAME": "Iglesia Santos De Los Ultimos", "ide": 141 }, "geometry": { "type": "Point", "coordinates": [ -66.726502, 18.448618 ] } },
{ "type": "Feature", "properties": { "COMPANY_NAME": "Iglesia Cristiana Monte Olivar", "ide": 142 }, "geometry": { "type": "Point", "coordinates": [ -66.597328, 18.023953 ] } },
{ "type": "Feature", "properties": { "COMPANY_NAME": "Congregacion Testigo De Jehova", "ide": 143 }, "geometry": { "type": "Point", "coordinates": [ -66.809033, 18.482204 ] } },
{ "type": "Feature", "properties": { "COMPANY_NAME": "Congregacion Testigos-Jehova", "ide": 144 }, "geometry": { "type": "Point", "coordinates": [ -66.88145, 18.295442 ] } },
{ "type": "Feature", "properties": { "COMPANY_NAME": "Iglesia Testigos De Jehova", "ide": 145 }, "geometry": { "type": "Point", "coordinates": [ -66.597328, 18.023953 ] } },
{ "type": "Feature", "properties": { "COMPANY_NAME": "Martinez Santiago Nelson", "ide": 146 }, "geometry": { "type": "Point", "coordinates": [ -66.942198, 18.46595 ] } },
{ "type": "Feature", "properties": { "COMPANY_NAME": "Congregacion Loma Linda", "ide": 147 }, "geometry": { "type": "Point", "coordinates": [ -66.32045, 18.338477 ] } },
{ "type": "Feature", "properties": { "COMPANY_NAME": "Testigo De Jehova De Luquillo", "ide": 148 }, "geometry": { "type": "Point", "coordinates": [ -65.724069, 18.373307 ] } },
{ "type": "Feature", "properties": { "COMPANY_NAME": "Iglesia Bautista Bethel", "ide": 149 }, "geometry": { "type": "Point", "coordinates": [ -65.898701, 18.007523 ] } },
{ "type": "Feature", "properties": { "COMPANY_NAME": "La Iglesia Beerseba Inc", "ide": 150 }, "geometry": { "type": "Point", "coordinates": [ -66.062169, 17.96411 ] } },
{ "type": "Feature", "properties": { "COMPANY_NAME": "Primera Iglesia Bautista De", "ide": 151 }, "geometry": { "type": "Point", "coordinates": [ -66.161307, 18.175889 ] } },
{ "type": "Feature", "properties": { "COMPANY_NAME": "Jewish Congregation Sharee", "ide": 152 }, "geometry": { "type": "Point", "coordinates": [ -66.021597, 18.440943 ] } },
{ "type": "Feature", "properties": { "COMPANY_NAME": "First Church-Christ-Scientist", "ide": 153 }, "geometry": { "type": "Point", "coordinates": [ -66.067852, 18.446568 ] } },
{ "type": "Feature", "properties": { "COMPANY_NAME": "Casa De Las Almas Logias", "ide": 154 }, "geometry": { "type": "Point", "coordinates": [ -66.064219, 18.446158 ] } },
{ "type": "Feature", "properties": { "COMPANY_NAME": "Abundant Life Fellowship Chr", "ide": 155 }, "geometry": { "type": "Point", "coordinates": [ -66.036791, 18.447741 ] } },
{ "type": "Feature", "properties": { "COMPANY_NAME": "Visitador Padres Paules", "ide": 156 }, "geometry": { "type": "Point", "coordinates": [ -66.067975, 18.442378 ] } },
{ "type": "Feature", "properties": { "COMPANY_NAME": "Escuela Jesus T Pinero", "ide": 157 }, "geometry": { "type": "Point", "coordinates": [ -65.956169, 18.379809 ] } },
{ "type": "Feature", "properties": { "COMPANY_NAME": "Casa De Oracion Maranatha", "ide": 158 }, "geometry": { "type": "Point", "coordinates": [ -66.058048, 18.403172 ] } },
{ "type": "Feature", "properties": { "COMPANY_NAME": "Iglesia Bautista De Carolina", "ide": 159 }, "geometry": { "type": "Point", "coordinates": [ -65.961082, 18.380428 ] } },
{ "type": "Feature", "properties": { "COMPANY_NAME": "Parroquia San Fernando", "ide": 160 }, "geometry": { "type": "Point", "coordinates": [ -65.956169, 18.379809 ] } },
{ "type": "Feature", "properties": { "COMPANY_NAME": "Periodico Primera Hora", "ide": 161 }, "geometry": { "type": "Point", "coordinates": [ -66.053285, 18.368643 ] } },
{ "type": "Feature", "properties": { "COMPANY_NAME": "Iglesia Mi Alma Tiene Sed De", "ide": 162 }, "geometry": { "type": "Point", "coordinates": [ -65.956169, 18.379809 ] } },
{ "type": "Feature", "properties": { "COMPANY_NAME": "Religiosas Dominicas", "ide": 163 }, "geometry": { "type": "Point", "coordinates": [ -66.1875, 18.4 ] } },
{ "type": "Feature", "properties": { "COMPANY_NAME": "Iglesia Ascension Del Senor", "ide": 164 }, "geometry": { "type": "Point", "coordinates": [ -66.186713, 18.372441 ] } },
{ "type": "Feature", "properties": { "COMPANY_NAME": "Iglesia Amec Casa De Alabanza", "ide": 165 }, "geometry": { "type": "Point", "coordinates": [ -65.899649, 18.379999 ] } },
{ "type": "Feature", "properties": { "COMPANY_NAME": "Iglesia Betesda", "ide": 166 }, "geometry": { "type": "Point", "coordinates": [ -66.227092, 18.218223 ] } },
{ "type": "Feature", "properties": { "COMPANY_NAME": "Congregacion Cristiana", "ide": 167 }, "geometry": { "type": "Point", "coordinates": [ -66.471099, 18.316951 ] } },
{ "type": "Feature", "properties": { "COMPANY_NAME": "Iglesia De Dios Montebello Inc", "ide": 168 }, "geometry": { "type": "Point", "coordinates": [ -66.481241, 18.429814 ] } },
{ "type": "Feature", "properties": { "COMPANY_NAME": "Congrecion Zanja De Testigos", "ide": 169 }, "geometry": { "type": "Point", "coordinates": [ -66.850169, 18.477039 ] } },
{ "type": "Feature", "properties": { "COMPANY_NAME": "Iglesia Sin Paredes", "ide": 170 }, "geometry": { "type": "Point", "coordinates": [ -66.117624, 17.984192 ] } },
{ "type": "Feature", "properties": { "COMPANY_NAME": "Iglesia De Jesucristo De Los", "ide": 171 }, "geometry": { "type": "Point", "coordinates": [ -66.955194, 18.274665 ] } },
{ "type": "Feature", "properties": { "COMPANY_NAME": "Ministerio Vida Con Proposito", "ide": 172 }, "geometry": { "type": "Point", "coordinates": [ -67.153613, 18.078632 ] } },
{ "type": "Feature", "properties": { "COMPANY_NAME": "Iglesia Prebisteriana", "ide": 173 }, "geometry": { "type": "Point", "coordinates": [ -67.119709, 18.140595 ] } },
{ "type": "Feature", "properties": { "COMPANY_NAME": "Estremera Pinol Rosa Maria Sr", "ide": 174 }, "geometry": { "type": "Point", "coordinates": [ -66.022914, 18.364172 ] } },
{ "type": "Feature", "properties": { "COMPANY_NAME": "Casa Parroquial Madre De La", "ide": 175 }, "geometry": { "type": "Point", "coordinates": [ -66.108142, 18.365013 ] } },
{ "type": "Feature", "properties": { "COMPANY_NAME": "Parroquia Cristo Rey", "ide": 176 }, "geometry": { "type": "Point", "coordinates": [ -65.956169, 18.379809 ] } },
{ "type": "Feature", "properties": { "COMPANY_NAME": "Iglesia Cristiana Discipulos", "ide": 177 }, "geometry": { "type": "Point", "coordinates": [ -66.186713, 18.372441 ] } },
{ "type": "Feature", "properties": { "COMPANY_NAME": "Iglesia De Jesucristo Buen", "ide": 178 }, "geometry": { "type": "Point", "coordinates": [ -66.190046, 18.434607 ] } },
{ "type": "Feature", "properties": { "COMPANY_NAME": "Iglesia Jesucristo Fuentes De", "ide": 179 }, "geometry": { "type": "Point", "coordinates": [ -65.956169, 18.379809 ] } },
{ "type": "Feature", "properties": { "COMPANY_NAME": "Arzobispado De San Juan", "ide": 180 }, "geometry": { "type": "Point", "coordinates": [ -66.061976, 18.447158 ] } },
{ "type": "Feature", "properties": { "COMPANY_NAME": "Asamblea De Dios Distrito Pr", "ide": 181 }, "geometry": { "type": "Point", "coordinates": [ -66.152472, 18.39084 ] } },
{ "type": "Feature", "properties": { "COMPANY_NAME": "Iglesia Bautista Central", "ide": 182 }, "geometry": { "type": "Point", "coordinates": [ -66.091835, 18.394714 ] } },
{ "type": "Feature", "properties": { "COMPANY_NAME": "Iglesia Cristiana Taller", "ide": 183 }, "geometry": { "type": "Point", "coordinates": [ -66.32713, 18.419602 ] } },
{ "type": "Feature", "properties": { "COMPANY_NAME": "La Comunidad Misionere De", "ide": 184 }, "geometry": { "type": "Point", "coordinates": [ -66.726502, 18.448618 ] } },
{ "type": "Feature", "properties": { "COMPANY_NAME": "Iglesia De Dios Pentecostal", "ide": 185 }, "geometry": { "type": "Point", "coordinates": [ -66.726502, 18.448618 ] } },
{ "type": "Feature", "properties": { "COMPANY_NAME": "Comite Funcionamiento Congrega", "ide": 186 }, "geometry": { "type": "Point", "coordinates": [ -66.248507, 18.386777 ] } },
{ "type": "Feature", "properties": { "COMPANY_NAME": "Concilio Pentecostal Alpha", "ide": 187 }, "geometry": { "type": "Point", "coordinates": [ -65.734432, 18.210097 ] } },
{ "type": "Feature", "properties": { "COMPANY_NAME": "Iglesia De Dios Mi", "ide": 188 }, "geometry": { "type": "Point", "coordinates": [ -65.734432, 18.210097 ] } },
{ "type": "Feature", "properties": { "COMPANY_NAME": "Congregacion Testigo De Jehova", "ide": 189 }, "geometry": { "type": "Point", "coordinates": [ -65.898701, 18.007523 ] } },
{ "type": "Feature", "properties": { "COMPANY_NAME": "Academia Cristiana De Manati", "ide": 190 }, "geometry": { "type": "Point", "coordinates": [ -66.481241, 18.429814 ] } },
{ "type": "Feature", "properties": { "COMPANY_NAME": "Iglesia Mision Evangelica", "ide": 191 }, "geometry": { "type": "Point", "coordinates": [ -66.823115, 18.485535 ] } },
{ "type": "Feature", "properties": { "COMPANY_NAME": "Iglesia Metodista Bethel", "ide": 192 }, "geometry": { "type": "Point", "coordinates": [ -66.809033, 18.482204 ] } },
{ "type": "Feature", "properties": { "COMPANY_NAME": "E Julio Ribas", "ide": 193 }, "geometry": { "type": "Point", "coordinates": [ -66.597328, 18.023953 ] } },
{ "type": "Feature", "properties": { "COMPANY_NAME": "Iglesia Metodista Unida Rdntr", "ide": 194 }, "geometry": { "type": "Point", "coordinates": [ -66.726502, 18.448618 ] } },
{ "type": "Feature", "properties": { "COMPANY_NAME": "Iglesia Presbiteriana Villa", "ide": 195 }, "geometry": { "type": "Point", "coordinates": [ -65.956169, 18.379809 ] } },
{ "type": "Feature", "properties": { "COMPANY_NAME": "Iglesia-Jesucristo-Los Santos", "ide": 196 }, "geometry": { "type": "Point", "coordinates": [ -66.190046, 18.434607 ] } },
{ "type": "Feature", "properties": { "COMPANY_NAME": "Iglesia Bautista El Calvario", "ide": 197 }, "geometry": { "type": "Point", "coordinates": [ -66.022914, 18.364172 ] } },
{ "type": "Feature", "properties": { "COMPANY_NAME": "Seminario Beato Dominquez", "ide": 198 }, "geometry": { "type": "Point", "coordinates": [ -66.186713, 18.372441 ] } },
{ "type": "Feature", "properties": { "COMPANY_NAME": "Guaymar Centro De Estudios", "ide": 199 }, "geometry": { "type": "Point", "coordinates": [ -66.097901, 18.398855 ] } },
{ "type": "Feature", "properties": { "COMPANY_NAME": "Parroquia La Gruta De Lourdes", "ide": 200 }, "geometry": { "type": "Point", "coordinates": [ -66.022914, 18.364172 ] } },
{ "type": "Feature", "properties": { "COMPANY_NAME": "Parroquia Nuestra Sra Reina", "ide": 201 }, "geometry": { "type": "Point", "coordinates": [ -66.042658, 18.45185 ] } },
{ "type": "Feature", "properties": { "COMPANY_NAME": "ICDDC Bo Santa Rosa III", "ide": 202 }, "geometry": { "type": "Point", "coordinates": [ -66.108142, 18.365013 ] } },
{ "type": "Feature", "properties": { "COMPANY_NAME": "Conferencia Episcopal Pr", "ide": 203 }, "geometry": { "type": "Point", "coordinates": [ -66.062181, 18.44722 ] } },
{ "type": "Feature", "properties": { "COMPANY_NAME": "Alianza Cristiana & Misionera", "ide": 204 }, "geometry": { "type": "Point", "coordinates": [ -66.076051, 18.361515 ] } },
{ "type": "Feature", "properties": { "COMPANY_NAME": "Centro Evangelistico Fuente", "ide": 205 }, "geometry": { "type": "Point", "coordinates": [ -66.186713, 18.372441 ] } },
{ "type": "Feature", "properties": { "COMPANY_NAME": "Iglesia Bethesda Asambleas", "ide": 206 }, "geometry": { "type": "Point", "coordinates": [ -66.051539, 18.430019 ] } },
{ "type": "Feature", "properties": { "COMPANY_NAME": "Iglesia De Dios Mision Board", "ide": 207 }, "geometry": { "type": "Point", "coordinates": [ -66.010827, 18.397262 ] } },
{ "type": "Feature", "properties": { "COMPANY_NAME": "Iglesia Fuentes De Agua Viva", "ide": 208 }, "geometry": { "type": "Point", "coordinates": [ -65.956169, 18.379809 ] } },
{ "type": "Feature", "properties": { "COMPANY_NAME": "Primera Iglesia Universal", "ide": 209 }, "geometry": { "type": "Point", "coordinates": [ -65.956169, 18.379809 ] } },
{ "type": "Feature", "properties": { "COMPANY_NAME": "Temple De Dios Viviente", "ide": 210 }, "geometry": { "type": "Point", "coordinates": [ -66.0513, 18.4007 ] } },
{ "type": "Feature", "properties": { "COMPANY_NAME": "Iglesia Luterana Divino Slvdr", "ide": 211 }, "geometry": { "type": "Point", "coordinates": [ -66.131657, 18.436383 ] } },
{ "type": "Feature", "properties": { "COMPANY_NAME": "Iglesia Cristiana Hebreos", "ide": 212 }, "geometry": { "type": "Point", "coordinates": [ -66.161509, 18.365501 ] } },
{ "type": "Feature", "properties": { "COMPANY_NAME": "Iglesia De Cristo Misonera", "ide": 213 }, "geometry": { "type": "Point", "coordinates": [ -66.022914, 18.364172 ] } },
{ "type": "Feature", "properties": { "COMPANY_NAME": "Iglesia De Dios El Tabernaculo", "ide": 214 }, "geometry": { "type": "Point", "coordinates": [ -65.956169, 18.379809 ] } },
{ "type": "Feature", "properties": { "COMPANY_NAME": "Iglesia De Dios Mission Board", "ide": 215 }, "geometry": { "type": "Point", "coordinates": [ -66.186713, 18.372441 ] } },
{ "type": "Feature", "properties": { "COMPANY_NAME": "Iglesia Manantial De Vida", "ide": 216 }, "geometry": { "type": "Point", "coordinates": [ -66.190046, 18.434607 ] } },
{ "type": "Feature", "properties": { "COMPANY_NAME": "La Gran Commission Betania", "ide": 217 }, "geometry": { "type": "Point", "coordinates": [ -66.022914, 18.364172 ] } },
{ "type": "Feature", "properties": { "COMPANY_NAME": "Iglesia De Dios Mission Board", "ide": 218 }, "geometry": { "type": "Point", "coordinates": [ -66.190046, 18.434607 ] } },
{ "type": "Feature", "properties": { "COMPANY_NAME": "Iglesia De Dios Pentecostal", "ide": 219 }, "geometry": { "type": "Point", "coordinates": [ -66.069357, 18.395354 ] } },
{ "type": "Feature", "properties": { "COMPANY_NAME": "Iglesia De Dios Pentecostal Mi", "ide": 220 }, "geometry": { "type": "Point", "coordinates": [ -66.152472, 18.39084 ] } },
{ "type": "Feature", "properties": { "COMPANY_NAME": "Iglesia De Dios Pentecostal Mi", "ide": 221 }, "geometry": { "type": "Point", "coordinates": [ -66.104677, 18.382531 ] } },
{ "type": "Feature", "properties": { "COMPANY_NAME": "Iglesia De Dios Pentecostal Mi", "ide": 222 }, "geometry": { "type": "Point", "coordinates": [ -66.156467, 18.352086 ] } },
{ "type": "Feature", "properties": { "COMPANY_NAME": "Congregacion Carolina", "ide": 223 }, "geometry": { "type": "Point", "coordinates": [ -65.956169, 18.379809 ] } },
{ "type": "Feature", "properties": { "COMPANY_NAME": "Testigos De Jehova", "ide": 224 }, "geometry": { "type": "Point", "coordinates": [ -65.956169, 18.379809 ] } },
{ "type": "Feature", "properties": { "COMPANY_NAME": "Presbiterio De San Juan", "ide": 225 }, "geometry": { "type": "Point", "coordinates": [ -66.065136, 18.450783 ] } },
{ "type": "Feature", "properties": { "COMPANY_NAME": "Arte Purificacion", "ide": 226 }, "geometry": { "type": "Point", "coordinates": [ -66.010827, 18.397262 ] } },
{ "type": "Feature", "properties": { "COMPANY_NAME": "Arzobispado De San Juan", "ide": 227 }, "geometry": { "type": "Point", "coordinates": [ -66.118673, 18.467297 ] } },
{ "type": "Feature", "properties": { "COMPANY_NAME": "Colegio La Inmaculada", "ide": 228 }, "geometry": { "type": "Point", "coordinates": [ -66.06127, 18.442111 ] } },
{ "type": "Feature", "properties": { "COMPANY_NAME": "Iglesia De Restauracion", "ide": 229 }, "geometry": { "type": "Point", "coordinates": [ -66.108142, 18.365013 ] } },
{ "type": "Feature", "properties": { "COMPANY_NAME": "Felipe Piazza Vasquez", "ide": 230 }, "geometry": { "type": "Point", "coordinates": [ -66.108142, 18.365013 ] } },
{ "type": "Feature", "properties": { "COMPANY_NAME": "Iglesia Bautista Bethel Loiza", "ide": 231 }, "geometry": { "type": "Point", "coordinates": [ -65.884156, 18.379095 ] } },
{ "type": "Feature", "properties": { "COMPANY_NAME": "Iglesia Bautista Bethel Ext", "ide": 232 }, "geometry": { "type": "Point", "coordinates": [ -65.660834, 18.326118 ] } },
{ "type": "Feature", "properties": { "COMPANY_NAME": "Igleisa Bautista Bethel Ext", "ide": 233 }, "geometry": { "type": "Point", "coordinates": [ -65.884156, 18.379095 ] } },
{ "type": "Feature", "properties": { "COMPANY_NAME": "Parroquia Santisimo Redentor", "ide": 234 }, "geometry": { "type": "Point", "coordinates": [ -65.654394, 18.332087 ] } },
{ "type": "Feature", "properties": { "COMPANY_NAME": "Iglesia Amec Casa De Alabanza", "ide": 235 }, "geometry": { "type": "Point", "coordinates": [ -65.898331, 18.380366 ] } },
{ "type": "Feature", "properties": { "COMPANY_NAME": "Samaria Iglesia Evangelica Inc", "ide": 236 }, "geometry": { "type": "Point", "coordinates": [ -65.874593, 18.368429 ] } },
{ "type": "Feature", "properties": { "COMPANY_NAME": "Iglesia Del Valle", "ide": 237 }, "geometry": { "type": "Point", "coordinates": [ -65.884156, 18.379095 ] } },
{ "type": "Feature", "properties": { "COMPANY_NAME": "Iglesia De Cristo Misionera", "ide": 238 }, "geometry": { "type": "Point", "coordinates": [ -65.651166, 18.26693 ] } },
{ "type": "Feature", "properties": { "COMPANY_NAME": "Iglesia Vida Abundante Inc", "ide": 239 }, "geometry": { "type": "Point", "coordinates": [ -65.724069, 18.373307 ] } },
{ "type": "Feature", "properties": { "COMPANY_NAME": "International Conferencia-Pr", "ide": 240 }, "geometry": { "type": "Point", "coordinates": [ -65.874593, 18.368429 ] } },
{ "type": "Feature", "properties": { "COMPANY_NAME": "Iglesia De Dios Pentecostal Mi", "ide": 241 }, "geometry": { "type": "Point", "coordinates": [ -65.654394, 18.332087 ] } },
{ "type": "Feature", "properties": { "COMPANY_NAME": "Iglesia Pentecostal Vida Nueva", "ide": 242 }, "geometry": { "type": "Point", "coordinates": [ -65.874593, 18.368429 ] } },
{ "type": "Feature", "properties": { "COMPANY_NAME": "Ciudad Mistica", "ide": 243 }, "geometry": { "type": "Point", "coordinates": [ -66.957823, 18.073485 ] } },
{ "type": "Feature", "properties": { "COMPANY_NAME": "Iglesia Ministerio Intersecion", "ide": 244 }, "geometry": { "type": "Point", "coordinates": [ -67.145, 18.1807 ] } },
{ "type": "Feature", "properties": { "COMPANY_NAME": "Iglesia De Dios Pentecostal", "ide": 245 }, "geometry": { "type": "Point", "coordinates": [ -67.016727, 18.499358 ] } },
{ "type": "Feature", "properties": { "COMPANY_NAME": "Iglesia De Dios Pentecostal Mi", "ide": 246 }, "geometry": { "type": "Point", "coordinates": [ -67.153613, 18.078632 ] } },
{ "type": "Feature", "properties": { "COMPANY_NAME": "Primera Iglesia Presbiteriana", "ide": 247 }, "geometry": { "type": "Point", "coordinates": [ -67.147543, 18.446186 ] } },
{ "type": "Feature", "properties": { "COMPANY_NAME": "Saln Del Reino Testigos-Jehova", "ide": 248 }, "geometry": { "type": "Point", "coordinates": [ -67.019926, 18.493679 ] } },
{ "type": "Feature", "properties": { "COMPANY_NAME": "Iglesia Bautista Berea", "ide": 249 }, "geometry": { "type": "Point", "coordinates": [ -65.881047, 18.0483 ] } },
{ "type": "Feature", "properties": { "COMPANY_NAME": "Iglesia Metodista Pena-Horeb", "ide": 250 }, "geometry": { "type": "Point", "coordinates": [ -65.898701, 18.007523 ] } },
{ "type": "Feature", "properties": { "COMPANY_NAME": "Iglesia Evangelica Casa", "ide": 251 }, "geometry": { "type": "Point", "coordinates": [ -66.716723, 18.471192 ] } },
{ "type": "Feature", "properties": { "COMPANY_NAME": "Parroquia San Pablo", "ide": 252 }, "geometry": { "type": "Point", "coordinates": [ -66.405406, 18.339175 ] } },
{ "type": "Feature", "properties": { "COMPANY_NAME": "Iglesia Fuente De Agua Viva", "ide": 253 }, "geometry": { "type": "Point", "coordinates": [ -66.402787, 18.449671 ] } },
{ "type": "Feature", "properties": { "COMPANY_NAME": "Iglesia Bautista Nueva", "ide": 254 }, "geometry": { "type": "Point", "coordinates": [ -65.653866, 18.324162 ] } },
{ "type": "Feature", "properties": { "COMPANY_NAME": "Libro Del Valle", "ide": 255 }, "geometry": { "type": "Point", "coordinates": [ -65.880088, 18.430134 ] } },
{ "type": "Feature", "properties": { "COMPANY_NAME": "Congregacion Central Testigos", "ide": 256 }, "geometry": { "type": "Point", "coordinates": [ -66.62053, 18.005615 ] } },
{ "type": "Feature", "properties": { "COMPANY_NAME": "Iglesia Bautista-Corral Viejo", "ide": 257 }, "geometry": { "type": "Point", "coordinates": [ -66.627393, 18.103859 ] } },
{ "type": "Feature", "properties": { "COMPANY_NAME": "Iglesia Cristiana Discipulos", "ide": 258 }, "geometry": { "type": "Point", "coordinates": [ -66.627393, 18.103859 ] } },
{ "type": "Feature", "properties": { "COMPANY_NAME": "Centro Evangelico Shamma Inc", "ide": 259 }, "geometry": { "type": "Point", "coordinates": [ -66.59369, 18.218841 ] } },
{ "type": "Feature", "properties": { "COMPANY_NAME": "Iglesia De Jesucristo De Los", "ide": 260 }, "geometry": { "type": "Point", "coordinates": [ -66.63557, 18.036822 ] } },
{ "type": "Feature", "properties": { "COMPANY_NAME": "Iglesia Salon-Reino Testigo", "ide": 261 }, "geometry": { "type": "Point", "coordinates": [ -66.287387, 17.977771 ] } },
{ "type": "Feature", "properties": { "COMPANY_NAME": "La Casa Del Joven", "ide": 262 }, "geometry": { "type": "Point", "coordinates": [ -67.13924, 18.192137 ] } },
{ "type": "Feature", "properties": { "COMPANY_NAME": "Chabad Luvavitch", "ide": 263 }, "geometry": { "type": "Point", "coordinates": [ -66.192612, 18.399989 ] } },
{ "type": "Feature", "properties": { "COMPANY_NAME": "Iglesia Biblica Baustista Inc", "ide": 264 }, "geometry": { "type": "Point", "coordinates": [ -67.153613, 18.078632 ] } },
{ "type": "Feature", "properties": { "COMPANY_NAME": "Centro Cristiano Getsemani", "ide": 265 }, "geometry": { "type": "Point", "coordinates": [ -67.143455, 18.199778 ] } },
{ "type": "Feature", "properties": { "COMPANY_NAME": "Comunidad Cristiana De Isabela", "ide": 266 }, "geometry": { "type": "Point", "coordinates": [ -67.019926, 18.493679 ] } },
{ "type": "Feature", "properties": { "COMPANY_NAME": "Iglesia Critiana Altar", "ide": 267 }, "geometry": { "type": "Point", "coordinates": [ -66.960406, 18.076216 ] } },
{ "type": "Feature", "properties": { "COMPANY_NAME": "Movimiento Cristiano Jafed", "ide": 268 }, "geometry": { "type": "Point", "coordinates": [ -67.153613, 18.078632 ] } },
{ "type": "Feature", "properties": { "COMPANY_NAME": "Iglesia De Jesucristo De Los", "ide": 269 }, "geometry": { "type": "Point", "coordinates": [ -67.147543, 18.446186 ] } },
{ "type": "Feature", "properties": { "COMPANY_NAME": "Christian of the Caribbean", "ide": 270 }, "geometry": { "type": "Point", "coordinates": [ -67.252348, 18.331968 ] } },
{ "type": "Feature", "properties": { "COMPANY_NAME": "Ministerio Cristiano", "ide": 271 }, "geometry": { "type": "Point", "coordinates": [ -67.147543, 18.446186 ] } },
{ "type": "Feature", "properties": { "COMPANY_NAME": "Mision Puertorriquena-Norte", "ide": 272 }, "geometry": { "type": "Point", "coordinates": [ -66.481241, 18.429814 ] } },
{ "type": "Feature", "properties": { "COMPANY_NAME": "Iglesia ACM\/MONACO", "ide": 273 }, "geometry": { "type": "Point", "coordinates": [ -66.485143, 18.414375 ] } },
{ "type": "Feature", "properties": { "COMPANY_NAME": "Iglesia Defensores-Fe Arecibo", "ide": 274 }, "geometry": { "type": "Point", "coordinates": [ -66.733112, 18.460576 ] } },
{ "type": "Feature", "properties": { "COMPANY_NAME": "Iglesia Bautista Oasis De Amor", "ide": 275 }, "geometry": { "type": "Point", "coordinates": [ -66.721142, 18.05124 ] } },
{ "type": "Feature", "properties": { "COMPANY_NAME": "Iglesia De Jesucristo-Santos", "ide": 276 }, "geometry": { "type": "Point", "coordinates": [ -66.872029, 18.028956 ] } },
{ "type": "Feature", "properties": { "COMPANY_NAME": "Iglesia Carismatica Casa-Amor", "ide": 277 }, "geometry": { "type": "Point", "coordinates": [ -66.548611, 18.050452 ] } },
{ "type": "Feature", "properties": { "COMPANY_NAME": "Parroquia El Buen Pastor", "ide": 278 }, "geometry": { "type": "Point", "coordinates": [ -66.627393, 18.103859 ] } },
{ "type": "Feature", "properties": { "COMPANY_NAME": "Iglesia De Dios Primitiva", "ide": 279 }, "geometry": { "type": "Point", "coordinates": [ -65.654394, 18.332087 ] } },
{ "type": "Feature", "properties": { "COMPANY_NAME": "IGLESIA BAUTISTA DE CASTANER", "ide": 280 }, "geometry": { "type": "Point", "coordinates": [ 66.62052917, 18.00561523 ] } },
{ "type": "Feature", "properties": { "COMPANY_NAME": "IGLESIA CATOLICA SAN FRANCISCO", "ide": 281 }, "geometry": { "type": "Point", "coordinates": [ -67.18881225, 18.37935256 ] } },
{ "type": "Feature", "properties": { "COMPANY_NAME": "IGLESIA DE DIOS PENTECOSTAL", "ide": 282 }, "geometry": { "type": "Point", "coordinates": [ -67.18418121, 18.38252449 ] } },
{ "type": "Feature", "properties": { "COMPANY_NAME": "TABERNACULO DE ALABANZA", "ide": 283 }, "geometry": { "type": "Point", "coordinates": [ -67.14754486, 18.44618606 ] } },
{ "type": "Feature", "properties": { "COMPANY_NAME": "MINISTERIO CRISTIANO", "ide": 284 }, "geometry": { "type": "Point", "coordinates": [ -67.13926696, 18.2818489 ] } },
{ "type": "Feature", "properties": { "COMPANY_NAME": "VICARIA DE PASTORAL", "ide": 285 }, "geometry": { "type": "Point", "coordinates": [ -66.7286911, 18.46682739 ] } },
{ "type": "Feature", "properties": { "COMPANY_NAME": "IGLESIA DE JESUCRISTO LOS SNTO", "ide": 286 }, "geometry": { "type": "Point", "coordinates": [ -66.72650146, 18.44861793 ] } },
{ "type": "Feature", "properties": { "COMPANY_NAME": "RESIDENCIA PRE SEMINARIO SERRA", "ide": 287 }, "geometry": { "type": "Point", "coordinates": [ -66.7286911, 18.46682739 ] } },
{ "type": "Feature", "properties": { "COMPANY_NAME": "PARROQUIA NUESTRA SENORA DEL", "ide": 288 }, "geometry": { "type": "Point", "coordinates": [ -66.53864288, 18.45451545 ] } },
{ "type": "Feature", "properties": { "COMPANY_NAME": "TESTIGO DE JEHOVA", "ide": 289 }, "geometry": { "type": "Point", "coordinates": [ -67.15361785, 18.07863235 ] } },
{ "type": "Feature", "properties": { "COMPANY_NAME": "IGLESIA CATOLICA SAN ISIDRO", "ide": 290 }, "geometry": { "type": "Point", "coordinates": [ -66.9578247, 18.07348442 ] } },
{ "type": "Feature", "properties": { "COMPANY_NAME": "CASA PARROQUIAL", "ide": 291 }, "geometry": { "type": "Point", "coordinates": [ -66.82421112, 18.48767662 ] } },
{ "type": "Feature", "properties": { "COMPANY_NAME": "PABELLON DE LA VICTORIA", "ide": 292 }, "geometry": { "type": "Point", "coordinates": [ -67.11971282, 18.14059638 ] } },
{ "type": "Feature", "properties": { "COMPANY_NAME": "PARROQUIA NUESTRA SRA DEL", "ide": 293 }, "geometry": { "type": "Point", "coordinates": [ -67.01992797, 18.49367904 ] } },
{ "type": "Feature", "properties": { "COMPANY_NAME": "CITY OF THE KING", "ide": 294 }, "geometry": { "type": "Point", "coordinates": [ -66.88144683, 18.29544258 ] } },
{ "type": "Feature", "properties": { "COMPANY_NAME": "IGLESIA CATOLICA NUESTRA", "ide": 295 }, "geometry": { "type": "Point", "coordinates": [ -67.11374664, 18.39449119 ] } },
{ "type": "Feature", "properties": { "COMPANY_NAME": "PARROQUIA SAN RAFAEL ARCANGEL", "ide": 296 }, "geometry": { "type": "Point", "coordinates": [ -66.93743133, 18.47328567 ] } },
{ "type": "Feature", "properties": { "COMPANY_NAME": "IGLESIA MISION EVANGELICA", "ide": 297 }, "geometry": { "type": "Point", "coordinates": [ -66.9421997, 18.46595001 ] } },
{ "type": "Feature", "properties": { "COMPANY_NAME": "IGLESIA PRESBITERIANA JUAN", "ide": 298 }, "geometry": { "type": "Point", "coordinates": [ -66.9421997, 18.46595001 ] } },
{ "type": "Feature", "properties": { "COMPANY_NAME": "IGLESIA CATOLICA NUESTRA", "ide": 299 }, "geometry": { "type": "Point", "coordinates": [ -67.13923645, 18.19213676 ] } },
{ "type": "Feature", "properties": { "COMPANY_NAME": "PARROQUIA LA RESURRECION", "ide": 300 }, "geometry": { "type": "Point", "coordinates": [ -67.13923645, 18.19213676 ] } },
{ "type": "Feature", "properties": { "COMPANY_NAME": "IGLESIA EPISCOPAL SAN ANDRES", "ide": 301 }, "geometry": { "type": "Point", "coordinates": [ -67.13613891, 18.20031166 ] } },
{ "type": "Feature", "properties": { "COMPANY_NAME": "IGLESIA LUTERANA-PR", "ide": 302 }, "geometry": { "type": "Point", "coordinates": [ -67.13923645, 18.19213676 ] } },
{ "type": "Feature", "properties": { "COMPANY_NAME": "IGLESIA DE DIOS PENTECOSTAL", "ide": 303 }, "geometry": { "type": "Point", "coordinates": [ -66.85714721, 18.02775955 ] } },
{ "type": "Feature", "properties": { "COMPANY_NAME": "IGLESIA SAN CONRADO", "ide": 304 }, "geometry": { "type": "Point", "coordinates": [ -66.6109085, 18.00610733 ] } },
{ "type": "Feature", "properties": { "COMPANY_NAME": "PRIMERA IGLESIA PENTECOSTAL", "ide": 305 }, "geometry": { "type": "Point", "coordinates": [ -65.7344284, 18.21009635 ] } },
{ "type": "Feature", "properties": { "COMPANY_NAME": "PARROQUIA SAN MIGUEL ARCANGEL", "ide": 306 }, "geometry": { "type": "Point", "coordinates": [ -66.24419403, 18.30092811 ] } },
{ "type": "Feature", "properties": { "COMPANY_NAME": "IGLESIA CRUZADA EVANGELICA", "ide": 307 }, "geometry": { "type": "Point", "coordinates": [ -65.88415527, 18.37909507 ] } },
{ "type": "Feature", "properties": { "COMPANY_NAME": "IGELSIA EVANGELICA MONTE EL", "ide": 308 }, "geometry": { "type": "Point", "coordinates": [ -65.88415527, 18.37909507 ] } },
{ "type": "Feature", "properties": { "COMPANY_NAME": "PARROQUIA LA RESSURRECCION", "ide": 309 }, "geometry": { "type": "Point", "coordinates": [ -65.88415527, 18.37909507 ] } },
{ "type": "Feature", "properties": { "COMPANY_NAME": "IGLESIA DEFENSORES DE LA FE", "ide": 310 }, "geometry": { "type": "Point", "coordinates": [ -65.88415527, 18.37909507 ] } },
{ "type": "Feature", "properties": { "COMPANY_NAME": "SEGUNDA IGLESIA DEL NAZARENO", "ide": 311 }, "geometry": { "type": "Point", "coordinates": [ -66.63356018, 18.03701972 ] } },
{ "type": "Feature", "properties": { "COMPANY_NAME": "IGLESIA CATOLICA COTO LAUREL", "ide": 312 }, "geometry": { "type": "Point", "coordinates": [ -66.62982177, 18.01415634 ] } },
{ "type": "Feature", "properties": { "COMPANY_NAME": "IGLESIA EVANGELICA UNIDA DE PR", "ide": 313 }, "geometry": { "type": "Point", "coordinates": [ -66.6188507, 18.03258705 ] } },
{ "type": "Feature", "properties": { "COMPANY_NAME": "PARROQUIA LA MILAGROSA", "ide": 314 }, "geometry": { "type": "Point", "coordinates": [ -66.60739898, 18.01729965 ] } },
{ "type": "Feature", "properties": { "COMPANY_NAME": "PRIMERA IGLESIA METODISTA", "ide": 315 }, "geometry": { "type": "Point", "coordinates": [ -66.61660766, 18.01041221 ] } },
{ "type": "Feature", "properties": { "COMPANY_NAME": "CENTRO DE SERVICIO FERRAN", "ide": 316 }, "geometry": { "type": "Point", "coordinates": [ -66.63064575, 18.01502418 ] } },
{ "type": "Feature", "properties": { "COMPANY_NAME": "IGLESIA GLENVIEW CENTRO RETIRO", "ide": 317 }, "geometry": { "type": "Point", "coordinates": [ -66.62739562, 18.10386085 ] } },
{ "type": "Feature", "properties": { "COMPANY_NAME": "PARROQUIA CRISTO REY", "ide": 318 }, "geometry": { "type": "Point", "coordinates": [ -66.62739562, 18.10386085 ] } },
{ "type": "Feature", "properties": { "COMPANY_NAME": "SEGUNDA IGLESIA BAUTISTA", "ide": 319 }, "geometry": { "type": "Point", "coordinates": [ -66.62739562, 18.10386085 ] } },
{ "type": "Feature", "properties": { "COMPANY_NAME": "RELIGIOSAS DEL AMOR DE DIOS", "ide": 320 }, "geometry": { "type": "Point", "coordinates": [ -66.62739562, 18.10386085 ] } },
{ "type": "Feature", "properties": { "COMPANY_NAME": "ALIANZA CRISTIANA MIS", "ide": 321 }, "geometry": { "type": "Point", "coordinates": [ -65.65438842, 18.33208847 ] } },
{ "type": "Feature", "properties": { "COMPANY_NAME": "PARROQUIA CRISTO REY", "ide": 322 }, "geometry": { "type": "Point", "coordinates": [ -65.87459564, 18.36842727 ] } },
{ "type": "Feature", "properties": { "COMPANY_NAME": "IGLESIA DE DIOS PENTECOSTAL", "ide": 323 }, "geometry": { "type": "Point", "coordinates": [ -66.28739166, 17.97777175 ] } },
{ "type": "Feature", "properties": { "COMPANY_NAME": "CORP PRES BISHOP CHURCH", "ide": 324 }, "geometry": { "type": "Point", "coordinates": [ -66.29610443, 17.97904205 ] } },
{ "type": "Feature", "properties": { "COMPANY_NAME": "IGLESIA BAUTISTA BETHEL", "ide": 325 }, "geometry": { "type": "Point", "coordinates": [ -65.8810501, 18.04829978 ] } },
{ "type": "Feature", "properties": { "COMPANY_NAME": "IGLESIA SANTOS ANGELES", "ide": 326 }, "geometry": { "type": "Point", "coordinates": [ -65.8810501, 18.04829978 ] } },
{ "type": "Feature", "properties": { "COMPANY_NAME": "PARROQUIA SAN JOSE", "ide": 327 }, "geometry": { "type": "Point", "coordinates": [ -65.7173233, 18.37676239 ] } },
{ "type": "Feature", "properties": { "COMPANY_NAME": "PRIMERA IGLESIA METODISTA", "ide": 328 }, "geometry": { "type": "Point", "coordinates": [ -66.11762237, 17.98419189 ] } },
{ "type": "Feature", "properties": { "COMPANY_NAME": "PRIMERA IGLESIA BAUTISTA", "ide": 329 }, "geometry": { "type": "Point", "coordinates": [ -65.82406616, 18.12225723 ] } },
{ "type": "Feature", "properties": { "COMPANY_NAME": "IGLESIA DE CRISTO MISIONERA", "ide": 330 }, "geometry": { "type": "Point", "coordinates": [ -65.82406616, 18.12225723 ] } },
{ "type": "Feature", "properties": { "COMPANY_NAME": "CAPILLA NUESTRA SRA DE LOURDES", "ide": 331 }, "geometry": { "type": "Point", "coordinates": [ -66.07512664, 18.45273971 ] } },
{ "type": "Feature", "properties": { "COMPANY_NAME": "IGLESIA METODISTA UNIDAD", "ide": 332 }, "geometry": { "type": "Point", "coordinates": [ -66.07512664, 18.45273971 ] } },
{ "type": "Feature", "properties": { "COMPANY_NAME": "IGLESIA METODISTA DE SAN JUAN", "ide": 333 }, "geometry": { "type": "Point", "coordinates": [ -66.0679779, 18.44237709 ] } },
{ "type": "Feature", "properties": { "COMPANY_NAME": "IGLESIAS CRISTIANA BETANIA", "ide": 334 }, "geometry": { "type": "Point", "coordinates": [ -66.05543518, 18.4433403 ] } },
{ "type": "Feature", "properties": { "COMPANY_NAME": "OBRAS MISIONALES PONTIFICIES", "ide": 335 }, "geometry": { "type": "Point", "coordinates": [ -66.05288696, 18.41802787 ] } },
{ "type": "Feature", "properties": { "COMPANY_NAME": "CONGREGACION MITA INC", "ide": 336 }, "geometry": { "type": "Point", "coordinates": [ -66.04642486, 18.42495918 ] } },
{ "type": "Feature", "properties": { "COMPANY_NAME": "PARROQUIA NTRA SENORA REINA", "ide": 337 }, "geometry": { "type": "Point", "coordinates": [ -66.06330871, 18.41755485 ] } },
{ "type": "Feature", "properties": { "COMPANY_NAME": "SOCIEDAD BIBLICA DE PR", "ide": 338 }, "geometry": { "type": "Point", "coordinates": [ -66.06330871, 18.41755485 ] } },
{ "type": "Feature", "properties": { "COMPANY_NAME": "IGLESIA DEL NAZARENO", "ide": 339 }, "geometry": { "type": "Point", "coordinates": [ -66.08090972, 18.39619064 ] } },
{ "type": "Feature", "properties": { "COMPANY_NAME": "IGLESIA CRISTIANA SENDEROS", "ide": 340 }, "geometry": { "type": "Point", "coordinates": [ -66.09379577, 18.39616775 ] } },
{ "type": "Feature", "properties": { "COMPANY_NAME": "CESAR ROMAN GALARZA", "ide": 341 }, "geometry": { "type": "Point", "coordinates": [ -66.08880615, 18.39261627 ] } },
{ "type": "Feature", "properties": { "COMPANY_NAME": "PARROQUIA SAN IGNACIO-LOYOLA", "ide": 342 }, "geometry": { "type": "Point", "coordinates": [ -66.08586883, 18.37647628 ] } },
{ "type": "Feature", "properties": { "COMPANY_NAME": "COMUNIDAD DEL RETIRO", "ide": 343 }, "geometry": { "type": "Point", "coordinates": [ -66.06935882, 18.39535331 ] } },
{ "type": "Feature", "properties": { "COMPANY_NAME": "COLEGIO BAUTISTA DE LEVITTOWN", "ide": 344 }, "geometry": { "type": "Point", "coordinates": [ -66.19004821, 18.43460845 ] } },
{ "type": "Feature", "properties": { "COMPANY_NAME": "IGLESIA CRISTIANA DISCIPULOS", "ide": 345 }, "geometry": { "type": "Point", "coordinates": [ -66.24850463, 18.38677597 ] } },
{ "type": "Feature", "properties": { "COMPANY_NAME": "IGLESIA ACM MORADA DE PAZ", "ide": 346 }, "geometry": { "type": "Point", "coordinates": [ -66.18671417, 18.37244033 ] } },
{ "type": "Feature", "properties": { "COMPANY_NAME": "CENTRO CATEQUESIS VICARIA", "ide": 347 }, "geometry": { "type": "Point", "coordinates": [ -66.15247344, 18.39084053 ] } },
{ "type": "Feature", "properties": { "COMPANY_NAME": "PADRES DOMINICOS DE PR INC", "ide": 348 }, "geometry": { "type": "Point", "coordinates": [ -66.17921447, 18.39385795 ] } },
{ "type": "Feature", "properties": { "COMPANY_NAME": "PARROQUIA SAN JOSE", "ide": 349 }, "geometry": { "type": "Point", "coordinates": [ -66.15247344, 18.39084053 ] } },
{ "type": "Feature", "properties": { "COMPANY_NAME": "IGLESIA DE DIOS PENTECOSTAL", "ide": 350 }, "geometry": { "type": "Point", "coordinates": [ -66.15247344, 18.39084053 ] } },
{ "type": "Feature", "properties": { "COMPANY_NAME": "CABALLEROS DE COLON DE BAYAMON", "ide": 351 }, "geometry": { "type": "Point", "coordinates": [ -66.15247344, 18.39084053 ] } },
{ "type": "Feature", "properties": { "COMPANY_NAME": "CENTRO DE ENVEJECIENTES SHALOM", "ide": 352 }, "geometry": { "type": "Point", "coordinates": [ -66.16056823, 18.33738708 ] } },
{ "type": "Feature", "properties": { "COMPANY_NAME": "IGLESIA DEL KYRIOS INC", "ide": 353 }, "geometry": { "type": "Point", "coordinates": [ -66.16912078, 18.40311431 ] } },
{ "type": "Feature", "properties": { "COMPANY_NAME": "IGELSIA BAUTISTA EBENEZER", "ide": 354 }, "geometry": { "type": "Point", "coordinates": [ -66.13165283, 18.4363842 ] } },
{ "type": "Feature", "properties": { "COMPANY_NAME": "MINISTERIO CRISTIANO DE LAS", "ide": 355 }, "geometry": { "type": "Point", "coordinates": [ -66.10814666, 18.36501121 ] } },
{ "type": "Feature", "properties": { "COMPANY_NAME": "PARROQUIA SANTA LUISA", "ide": 356 }, "geometry": { "type": "Point", "coordinates": [ -66.10814666, 18.36501121 ] } },
{ "type": "Feature", "properties": { "COMPANY_NAME": "IGLESIA WESLEYANA GUAYNABO", "ide": 357 }, "geometry": { "type": "Point", "coordinates": [ -66.10814666, 18.36501121 ] } },
{ "type": "Feature", "properties": { "COMPANY_NAME": "PARROQUIA SAN BARTOLOME", "ide": 358 }, "geometry": { "type": "Point", "coordinates": [ -66.02172088, 18.36231994 ] } },
{ "type": "Feature", "properties": { "COMPANY_NAME": "IGLESIA DE DIOS MISION BOARD", "ide": 359 }, "geometry": { "type": "Point", "coordinates": [ -66.02291107, 18.36417198 ] } },
{ "type": "Feature", "properties": { "COMPANY_NAME": "IGLESIA DE CRISTO MISIONERA", "ide": 360 }, "geometry": { "type": "Point", "coordinates": [ -66.02291107, 18.36417198 ] } },
{ "type": "Feature", "properties": { "COMPANY_NAME": "PARROQUIA SAN JUAN DE LA CRUZ", "ide": 361 }, "geometry": { "type": "Point", "coordinates": [ -66.02291107, 18.36417198 ] } },
{ "type": "Feature", "properties": { "COMPANY_NAME": "IGLESIA CRISTIANA DSCPL-CRST", "ide": 362 }, "geometry": { "type": "Point", "coordinates": [ -66.02291107, 18.36417198 ] } },
{ "type": "Feature", "properties": { "COMPANY_NAME": "LIBRERIA EVANGELICA-CAROLINA", "ide": 363 }, "geometry": { "type": "Point", "coordinates": [ -65.96108245, 18.38042831 ] } },
{ "type": "Feature", "properties": { "COMPANY_NAME": "IGLESIA CRISTIANA MENSAJERO", "ide": 364 }, "geometry": { "type": "Point", "coordinates": [ -65.95616912, 18.37980842 ] } },
{ "type": "Feature", "properties": { "COMPANY_NAME": "IGLESIA DE DIOS DE LA PROFECIA", "ide": 365 }, "geometry": { "type": "Point", "coordinates": [ -65.95616912, 18.37980842 ] } },
{ "type": "Feature", "properties": { "COMPANY_NAME": "CENTRO CATEQUESIS", "ide": 366 }, "geometry": { "type": "Point", "coordinates": [ -65.95616912, 18.37980842 ] } },
{ "type": "Feature", "properties": { "COMPANY_NAME": "IGLESIA SANTA BERNARDITA", "ide": 367 }, "geometry": { "type": "Point", "coordinates": [ -65.95616912, 18.37980842 ] } },
{ "type": "Feature", "properties": { "COMPANY_NAME": "IGLESIA ASAMBLEA DE DIOS-FARO", "ide": 368 }, "geometry": { "type": "Point", "coordinates": [ -66.72446441, 18.16407966 ] } },
{ "type": "Feature", "properties": { "COMPANY_NAME": "PADRE LESMES BERNABE", "ide": 369 }, "geometry": { "type": "Point", "coordinates": [ -67.18418121, 18.38252449 ] } },
{ "type": "Feature", "properties": { "COMPANY_NAME": "IGLESIA PRESBITERIANA EL BUEN", "ide": 370 }, "geometry": { "type": "Point", "coordinates": [ -66.98020172, 18.18128776 ] } },
{ "type": "Feature", "properties": { "COMPANY_NAME": "IGLESIA PRESBITERIANA UNIDA", "ide": 371 }, "geometry": { "type": "Point", "coordinates": [ -67.13926696, 18.2818489 ] } },
{ "type": "Feature", "properties": { "COMPANY_NAME": "PARROQUIA SAN ANTONIO ABAD", "ide": 372 }, "geometry": { "type": "Point", "coordinates": [ -67.14109039, 18.28160476 ] } },
{ "type": "Feature", "properties": { "COMPANY_NAME": "DEPARTAMENTO DE CATEQUESIS", "ide": 373 }, "geometry": { "type": "Point", "coordinates": [ -66.7286911, 18.46682739 ] } },
{ "type": "Feature", "properties": { "COMPANY_NAME": "LOGIA CONSTANCIA", "ide": 374 }, "geometry": { "type": "Point", "coordinates": [ -66.54178619, 18.43784523 ] } },
{ "type": "Feature", "properties": { "COMPANY_NAME": "PARROQUIA SAN JOSE", "ide": 375 }, "geometry": { "type": "Point", "coordinates": [ -66.72114562, 18.05124092 ] } },
{ "type": "Feature", "properties": { "COMPANY_NAME": "E JULIO RIBAS", "ide": 376 }, "geometry": { "type": "Point", "coordinates": [ -66.68579101, 18.25826835 ] } },
{ "type": "Feature", "properties": { "COMPANY_NAME": "PADRES DEL ESPIRITU SANTO", "ide": 377 }, "geometry": { "type": "Point", "coordinates": [ -66.2761383, 18.44882392 ] } },
{ "type": "Feature", "properties": { "COMPANY_NAME": "PROYECTO ACTIVATE INC", "ide": 378 }, "geometry": { "type": "Point", "coordinates": [ -66.2761383, 18.44882392 ] } },
{ "type": "Feature", "properties": { "COMPANY_NAME": "SEGUNDA IGLESIA A\/D", "ide": 379 }, "geometry": { "type": "Point", "coordinates": [ -67.11971282, 18.14059638 ] } },
{ "type": "Feature", "properties": { "COMPANY_NAME": "CONGREGACION CRISTIANA", "ide": 380 }, "geometry": { "type": "Point", "coordinates": [ -67.11971282, 18.14059638 ] } },
{ "type": "Feature", "properties": { "COMPANY_NAME": "PARROQUIA NUESTRA SENORA DE LA", "ide": 381 }, "geometry": { "type": "Point", "coordinates": [ -66.59368896, 18.21883964 ] } },
{ "type": "Feature", "properties": { "COMPANY_NAME": "IGLESIA NUESTRA SRA DE LA", "ide": 382 }, "geometry": { "type": "Point", "coordinates": [ -67.05974578, 18.04658126 ] } },
{ "type": "Feature", "properties": { "COMPANY_NAME": "IGLESIA DEL NUEVO TESTAMENTO", "ide": 383 }, "geometry": { "type": "Point", "coordinates": [ -66.48123931, 18.42981338 ] } },
{ "type": "Feature", "properties": { "COMPANY_NAME": "IGLESIA-DIOS PENTECOSTAL MI", "ide": 384 }, "geometry": { "type": "Point", "coordinates": [ -66.48123931, 18.42981338 ] } },
{ "type": "Feature", "properties": { "COMPANY_NAME": "IGLESIA CATOLICA NUESTRA", "ide": 385 }, "geometry": { "type": "Point", "coordinates": [ -67.11374664, 18.39449119 ] } },
{ "type": "Feature", "properties": { "COMPANY_NAME": "IGLESIA CATOLICA SAN VINCENTE", "ide": 386 }, "geometry": { "type": "Point", "coordinates": [ -67.13923645, 18.19213676 ] } },
{ "type": "Feature", "properties": { "COMPANY_NAME": "PARROQUIA NUESTRA SENORA", "ide": 387 }, "geometry": { "type": "Point", "coordinates": [ -67.13923645, 18.19213676 ] } },
{ "type": "Feature", "properties": { "COMPANY_NAME": "IGLESIA DE DIOS PENTECOSTAL MI", "ide": 388 }, "geometry": { "type": "Point", "coordinates": [ -67.14521026, 18.19911956 ] } },
{ "type": "Feature", "properties": { "COMPANY_NAME": "PARROQUIA DEL SAGRADO CORAZON", "ide": 389 }, "geometry": { "type": "Point", "coordinates": [ -67.13923645, 18.19213676 ] } },
{ "type": "Feature", "properties": { "COMPANY_NAME": "SINODO PRESBITERIANO", "ide": 390 }, "geometry": { "type": "Point", "coordinates": [ -67.14347076, 18.15706062 ] } },
{ "type": "Feature", "properties": { "COMPANY_NAME": "IGLESIA CRISTIANA SHADDAI", "ide": 391 }, "geometry": { "type": "Point", "coordinates": [ -67.05494689, 18.08473205 ] } },
{ "type": "Feature", "properties": { "COMPANY_NAME": "IGLESIA PENTECOSTAL CIBAO", "ide": 392 }, "geometry": { "type": "Point", "coordinates": [ -66.95519256, 18.27466392 ] } },
{ "type": "Feature", "properties": { "COMPANY_NAME": "IGLESIA CRISTIANA DISCIPULOS", "ide": 393 }, "geometry": { "type": "Point", "coordinates": [ -66.40681457, 18.32901191 ] } },
{ "type": "Feature", "properties": { "COMPANY_NAME": "IGLESIA ADVENTISTA DEL 7 MO", "ide": 394 }, "geometry": { "type": "Point", "coordinates": [ -66.32712554, 18.41960144 ] } },
{ "type": "Feature", "properties": { "COMPANY_NAME": "CASA PARROQUIAL", "ide": 395 }, "geometry": { "type": "Point", "coordinates": [ -66.32712554, 18.41960144 ] } },
{ "type": "Feature", "properties": { "COMPANY_NAME": "PRIMERA IGLESIA BAUTISTA DE", "ide": 396 }, "geometry": { "type": "Point", "coordinates": [ -66.40278625, 18.44967269 ] } },
{ "type": "Feature", "properties": { "COMPANY_NAME": "IGLESIA DE DIOS PENTECOSTAL", "ide": 397 }, "geometry": { "type": "Point", "coordinates": [ -66.86810302, 18.01288795 ] } },
{ "type": "Feature", "properties": { "COMPANY_NAME": "TERCERA IGLESIA BAUTISTA-PONCE", "ide": 398 }, "geometry": { "type": "Point", "coordinates": [ -66.57681274, 18.00704765 ] } },
{ "type": "Feature", "properties": { "COMPANY_NAME": "IGLESIA BAUTISTA MISIONERA", "ide": 399 }, "geometry": { "type": "Point", "coordinates": [ -66.6109085, 18.00610733 ] } },
{ "type": "Feature", "properties": { "COMPANY_NAME": "PRIMERA IGLESIA DE DIOS", "ide": 400 }, "geometry": { "type": "Point", "coordinates": [ -65.7344284, 18.21009635 ] } },
{ "type": "Feature", "properties": { "COMPANY_NAME": "IGLESIA EVANGELICA UNIDAD", "ide": 401 }, "geometry": { "type": "Point", "coordinates": [ -65.7344284, 18.21009635 ] } },
{ "type": "Feature", "properties": { "COMPANY_NAME": "IGLESIA EVANGELICA UNIDA-MINA", "ide": 402 }, "geometry": { "type": "Point", "coordinates": [ -65.7344284, 18.21009635 ] } },
{ "type": "Feature", "properties": { "COMPANY_NAME": "IGLESIA DE CRISTO MISIONERA", "ide": 403 }, "geometry": { "type": "Point", "coordinates": [ -65.7344284, 18.21009635 ] } },
{ "type": "Feature", "properties": { "COMPANY_NAME": "IGLESIA BAUTISTA DE OROCOVIS", "ide": 404 }, "geometry": { "type": "Point", "coordinates": [ -66.39159393, 18.22693824 ] } },
{ "type": "Feature", "properties": { "COMPANY_NAME": "PARROQUIA SAN JOSE OBRERO", "ide": 405 }, "geometry": { "type": "Point", "coordinates": [ -66.65580749, 17.98758506 ] } },
{ "type": "Feature", "properties": { "COMPANY_NAME": "IGLESIA UNIVERSAL DE JESUCRIST", "ide": 406 }, "geometry": { "type": "Point", "coordinates": [ -65.90059661, 18.37771224 ] } },
{ "type": "Feature", "properties": { "COMPANY_NAME": "IGLESIA DE RESTAURACION", "ide": 407 }, "geometry": { "type": "Point", "coordinates": [ -66.61894226, 18.01673126 ] } },
{ "type": "Feature", "properties": { "COMPANY_NAME": "IGLESIA EVANGELICA UNIDA", "ide": 408 }, "geometry": { "type": "Point", "coordinates": [ -66.62739562, 18.10386085 ] } },
{ "type": "Feature", "properties": { "COMPANY_NAME": "IGLESIA EVANGELICA UNIDA DE PR", "ide": 409 }, "geometry": { "type": "Point", "coordinates": [ -65.65116882, 18.26692962 ] } },
{ "type": "Feature", "properties": { "COMPANY_NAME": "SAMARIA IGLESIA SAMARIA", "ide": 410 }, "geometry": { "type": "Point", "coordinates": [ -65.65438842, 18.33208847 ] } },
{ "type": "Feature", "properties": { "COMPANY_NAME": "IGLESIA DE DIOS PENTECOSTAL", "ide": 411 }, "geometry": { "type": "Point", "coordinates": [ -65.65219116, 18.3266716 ] } },
{ "type": "Feature", "properties": { "COMPANY_NAME": "IGLESIA BAUTISTA DE PALMER", "ide": 412 }, "geometry": { "type": "Point", "coordinates": [ -65.87459564, 18.36842727 ] } },
{ "type": "Feature", "properties": { "COMPANY_NAME": "BELEN CASA DE PAZ CORP", "ide": 413 }, "geometry": { "type": "Point", "coordinates": [ -65.8800888, 18.43013381 ] } },
{ "type": "Feature", "properties": { "COMPANY_NAME": "PARROQUIA SAGRADA FAMILIA", "ide": 414 }, "geometry": { "type": "Point", "coordinates": [ -66.31467437, 18.34289932 ] } },
{ "type": "Feature", "properties": { "COMPANY_NAME": "PARROQUIA MARIA REINA", "ide": 415 }, "geometry": { "type": "Point", "coordinates": [ -65.82406616, 18.12225723 ] } },
{ "type": "Feature", "properties": { "COMPANY_NAME": "IGLESIA DE DIOS PENTECOSTAL", "ide": 416 }, "geometry": { "type": "Point", "coordinates": [ -65.82406616, 18.12225723 ] } },
{ "type": "Feature", "properties": { "COMPANY_NAME": "PARROQUIA SAN ANTONIA DE PADUA", "ide": 417 }, "geometry": { "type": "Point", "coordinates": [ -66.30530548, 18.18647575 ] } },
{ "type": "Feature", "properties": { "COMPANY_NAME": "PARROQUIA NUESTRA", "ide": 418 }, "geometry": { "type": "Point", "coordinates": [ -66.08447265, 18.45534706 ] } },
{ "type": "Feature", "properties": { "COMPANY_NAME": "PARROQUIA STELLA MARIS", "ide": 419 }, "geometry": { "type": "Point", "coordinates": [ -66.06895446, 18.45474052 ] } },
{ "type": "Feature", "properties": { "COMPANY_NAME": "IGLESIA DE LA SAGRADA FAMILIA", "ide": 420 }, "geometry": { "type": "Point", "coordinates": [ -66.06578063, 18.44345855 ] } },
{ "type": "Feature", "properties": { "COMPANY_NAME": "RELIGIOSAS DEL SAGRADO CORAZON", "ide": 421 }, "geometry": { "type": "Point", "coordinates": [ -66.06578063, 18.44345855 ] } },
{ "type": "Feature", "properties": { "COMPANY_NAME": "ARZOBISPADO DE SAN JUAN", "ide": 422 }, "geometry": { "type": "Point", "coordinates": [ -66.06252288, 18.4481163 ] } },
{ "type": "Feature", "properties": { "COMPANY_NAME": "BEACON OF LIGHT UNITY CHURCH", "ide": 423 }, "geometry": { "type": "Point", "coordinates": [ -66.06340026, 18.44429969 ] } },
{ "type": "Feature", "properties": { "COMPANY_NAME": "UNION CHURCH OF SAN JUAN", "ide": 424 }, "geometry": { "type": "Point", "coordinates": [ -66.04351043, 18.45162391 ] } },
{ "type": "Feature", "properties": { "COMPANY_NAME": "PARROQUIA NUESTRA SENORA", "ide": 425 }, "geometry": { "type": "Point", "coordinates": [ -66.05563354, 18.43740653 ] } },
{ "type": "Feature", "properties": { "COMPANY_NAME": "IGLESIA CANAAN DEFENSORES", "ide": 426 }, "geometry": { "type": "Point", "coordinates": [ -66.03882598, 18.43563461 ] } },
{ "type": "Feature", "properties": { "COMPANY_NAME": "IGLESIA ADVENTISTA SEPTIMO DIA", "ide": 427 }, "geometry": { "type": "Point", "coordinates": [ -66.04765319, 18.41934585 ] } },
{ "type": "Feature", "properties": { "COMPANY_NAME": "RENOVADORA INC", "ide": 428 }, "geometry": { "type": "Point", "coordinates": [ -66.05279541, 18.42098236 ] } },
{ "type": "Feature", "properties": { "COMPANY_NAME": "PADRES MERCEDARIOS", "ide": 429 }, "geometry": { "type": "Point", "coordinates": [ -66.05279541, 18.42098236 ] } },
{ "type": "Feature", "properties": { "COMPANY_NAME": "IGLESIA METODISTA UNIDA", "ide": 430 }, "geometry": { "type": "Point", "coordinates": [ -66.08886718, 18.40761756 ] } },
{ "type": "Feature", "properties": { "COMPANY_NAME": "PARROQUIA MADRE CABRINI", "ide": 431 }, "geometry": { "type": "Point", "coordinates": [ -66.09350585, 18.40377235 ] } },
{ "type": "Feature", "properties": { "COMPANY_NAME": "IGLESIA CRISTIANA EL SEMBRADOR", "ide": 432 }, "geometry": { "type": "Point", "coordinates": [ -66.09690856, 18.38684082 ] } },
{ "type": "Feature", "properties": { "COMPANY_NAME": "IGLESIA ADVENTISTA DEL SEPTIMO", "ide": 433 }, "geometry": { "type": "Point", "coordinates": [ -66.01082611, 18.39726257 ] } },
{ "type": "Feature", "properties": { "COMPANY_NAME": "CALVARY CHURCH OF THE NAZARENE", "ide": 434 }, "geometry": { "type": "Point", "coordinates": [ -66.01082611, 18.39726257 ] } },
{ "type": "Feature", "properties": { "COMPANY_NAME": "JOSE A RIVERA PEREZ", "ide": 435 }, "geometry": { "type": "Point", "coordinates": [ -66.02729034, 18.40570831 ] } },
{ "type": "Feature", "properties": { "COMPANY_NAME": "IGLESIA CRISTO PALABRA PODER", "ide": 436 }, "geometry": { "type": "Point", "coordinates": [ -66.0451126, 18.4009037 ] } },
{ "type": "Feature", "properties": { "COMPANY_NAME": "IGLESIA METODISTA UNIV", "ide": 437 }, "geometry": { "type": "Point", "coordinates": [ -66.05393981, 18.40308189 ] } },
{ "type": "Feature", "properties": { "COMPANY_NAME": "PARROQUIA SAN FRANCISCO JAVIER", "ide": 438 }, "geometry": { "type": "Point", "coordinates": [ -66.0328598, 18.36277961 ] } },
{ "type": "Feature", "properties": { "COMPANY_NAME": "EL CAMINO DE PR", "ide": 439 }, "geometry": { "type": "Point", "coordinates": [ -66.05882263, 18.36136436 ] } },
{ "type": "Feature", "properties": { "COMPANY_NAME": "IGLESIA BARBARA ANN ROESSLER", "ide": 440 }, "geometry": { "type": "Point", "coordinates": [ -66.01022338, 18.39728546 ] } },
{ "type": "Feature", "properties": { "COMPANY_NAME": "CASA PARROQUIAL SAN FERNANDO", "ide": 441 }, "geometry": { "type": "Point", "coordinates": [ -66.24850463, 18.38677597 ] } },
{ "type": "Feature", "properties": { "COMPANY_NAME": "IGLESIA LUTERANA EMANUEL", "ide": 442 }, "geometry": { "type": "Point", "coordinates": [ -66.02172088, 18.39483261 ] } },
{ "type": "Feature", "properties": { "COMPANY_NAME": "IGLESIA EVANGELICA LUTERANA", "ide": 443 }, "geometry": { "type": "Point", "coordinates": [ -66.18671417, 18.37244033 ] } },
{ "type": "Feature", "properties": { "COMPANY_NAME": "IGLESIA CRISTIANA DISCIPULOS", "ide": 444 }, "geometry": { "type": "Point", "coordinates": [ -66.18671417, 18.37244033 ] } },
{ "type": "Feature", "properties": { "COMPANY_NAME": "PARROQUIA NUESTRA SRA DE LA", "ide": 445 }, "geometry": { "type": "Point", "coordinates": [ -66.18671417, 18.37244033 ] } },
{ "type": "Feature", "properties": { "COMPANY_NAME": "IGLESIA DEFENSORES DE LA FE", "ide": 446 }, "geometry": { "type": "Point", "coordinates": [ -66.1732788, 18.39003562 ] } },
{ "type": "Feature", "properties": { "COMPANY_NAME": "IGLESIA FE QUE AGRADA A DIOS", "ide": 447 }, "geometry": { "type": "Point", "coordinates": [ -66.15247344, 18.39084053 ] } },
{ "type": "Feature", "properties": { "COMPANY_NAME": "IGLESIA EL CONGRESO", "ide": 448 }, "geometry": { "type": "Point", "coordinates": [ -66.15370941, 18.38088417 ] } },
{ "type": "Feature", "properties": { "COMPANY_NAME": "IGLESIA PRESBITERIANA-BAYAMON", "ide": 449 }, "geometry": { "type": "Point", "coordinates": [ -66.15247344, 18.39084053 ] } },
{ "type": "Feature", "properties": { "COMPANY_NAME": "PARROQUIA SAN JUAN BAUTISTA", "ide": 450 }, "geometry": { "type": "Point", "coordinates": [ -66.15247344, 18.39084053 ] } },
{ "type": "Feature", "properties": { "COMPANY_NAME": "IGLESIA DISCIPULOS DE CRISTO", "ide": 451 }, "geometry": { "type": "Point", "coordinates": [ -66.15247344, 18.39084053 ] } },
{ "type": "Feature", "properties": { "COMPANY_NAME": "IGLESIA CRISTIANA DISCIPULOS", "ide": 452 }, "geometry": { "type": "Point", "coordinates": [ -66.12848663, 18.39462471 ] } },
{ "type": "Feature", "properties": { "COMPANY_NAME": "IGLESIA DE DIOS MB", "ide": 453 }, "geometry": { "type": "Point", "coordinates": [ -66.15247344, 18.39084053 ] } },
{ "type": "Feature", "properties": { "COMPANY_NAME": "IGLESIA ASAMBLEAS-DIOS CATANO", "ide": 454 }, "geometry": { "type": "Point", "coordinates": [ -66.13165283, 18.4363842 ] } },
{ "type": "Feature", "properties": { "COMPANY_NAME": "IGLESIA CRISTIANA MISERICORDIA", "ide": 455 }, "geometry": { "type": "Point", "coordinates": [ -66.13165283, 18.4363842 ] } },
{ "type": "Feature", "properties": { "COMPANY_NAME": "IGLESIA METODISTA DE TORRIMAR", "ide": 456 }, "geometry": { "type": "Point", "coordinates": [ -66.11440277, 18.38780021 ] } },
{ "type": "Feature", "properties": { "COMPANY_NAME": "IGLESIA METODISTA DE TORRIMAR", "ide": 457 }, "geometry": { "type": "Point", "coordinates": [ -66.11440277, 18.38780021 ] } },
{ "type": "Feature", "properties": { "COMPANY_NAME": "SECOND UNION CHURCH-SAN JUAN", "ide": 458 }, "geometry": { "type": "Point", "coordinates": [ -66.08792877, 18.36174392 ] } },
{ "type": "Feature", "properties": { "COMPANY_NAME": "PRIMERA IGLESIA LA SENDA", "ide": 459 }, "geometry": { "type": "Point", "coordinates": [ -66.02291107, 18.36417198 ] } },
{ "type": "Feature", "properties": { "COMPANY_NAME": "PARROQUIA SAN JUDAS TADEO", "ide": 460 }, "geometry": { "type": "Point", "coordinates": [ -66.02291107, 18.36417198 ] } },
{ "type": "Feature", "properties": { "COMPANY_NAME": "IGLESIA CRISTIANA DISCIPULOS", "ide": 461 }, "geometry": { "type": "Point", "coordinates": [ -66.00624084, 18.42643928 ] } },
{ "type": "Feature", "properties": { "COMPANY_NAME": "IGLESIA ASAMBLEAS DE DIOS DE", "ide": 462 }, "geometry": { "type": "Point", "coordinates": [ -65.99430847, 18.41539382 ] } },
{ "type": "Feature", "properties": { "COMPANY_NAME": "TEMPLO EBENEZER", "ide": 463 }, "geometry": { "type": "Point", "coordinates": [ -65.98364257, 18.42324829 ] } },
{ "type": "Feature", "properties": { "COMPANY_NAME": "ALIANZA CRISTIANA & MISIONERA", "ide": 464 }, "geometry": { "type": "Point", "coordinates": [ -65.95616912, 18.37980842 ] } },
{ "type": "Feature", "properties": { "COMPANY_NAME": "PARROQUIA JESUS MEDIADOR", "ide": 465 }, "geometry": { "type": "Point", "coordinates": [ -65.95616912, 18.37980842 ] } },
{ "type": "Feature", "properties": { "COMPANY_NAME": "PARROQUIA NUESTRA SRA LOURDES", "ide": 466 }, "geometry": { "type": "Point", "coordinates": [ -65.95616912, 18.37980842 ] } },
{ "type": "Feature", "properties": { "COMPANY_NAME": "PARROQUIA INMACULADA CNCEPCN", "ide": 467 }, "geometry": { "type": "Point", "coordinates": [ -65.95616912, 18.37980842 ] } },
{ "type": "Feature", "properties": { "COMPANY_NAME": "CALVARY BAPTIST TABERNACLE", "ide": 468 }, "geometry": { "type": "Point", "coordinates": [ -65.95616912, 18.37980842 ] } },
{ "type": "Feature", "properties": { "COMPANY_NAME": "IGLESIA BAUTISTA BUENAVENTURA", "ide": 469 }, "geometry": { "type": "Point", "coordinates": [ -65.95616912, 18.37980842 ] } },
{ "type": "Feature", "properties": { "COMPANY_NAME": "IGLESIA DE DIOS MB", "ide": 470 }, "geometry": { "type": "Point", "coordinates": [ -65.95616912, 18.37980842 ] } },
{ "type": "Feature", "properties": { "COMPANY_NAME": "IGLESIA EVANGELICA EMMANUEL", "ide": 471 }, "geometry": { "type": "Point", "coordinates": [ -65.95616912, 18.37980842 ] } },
{ "type": "Feature", "properties": { "COMPANY_NAME": "IGLESIA REVELACIONES DE DIOS", "ide": 472 }, "geometry": { "type": "Point", "coordinates": [ -65.92595672, 18.36928367 ] } },
{ "type": "Feature", "properties": { "COMPANY_NAME": "IGLESIA PRESBITERIANA", "ide": 473 }, "geometry": { "type": "Point", "coordinates": [ -67.14754486, 18.44618606 ] } },
{ "type": "Feature", "properties": { "COMPANY_NAME": "IGLESIA CRISTIANA PENTECOSTAL", "ide": 474 }, "geometry": { "type": "Point", "coordinates": [ -66.54178619, 18.43784523 ] } },
{ "type": "Feature", "properties": { "COMPANY_NAME": "IGLESIA DE LOS SANTOS", "ide": 475 }, "geometry": { "type": "Point", "coordinates": [ -67.15361785, 18.07863235 ] } },
{ "type": "Feature", "properties": { "COMPANY_NAME": "PARROQUIA SAN MIGUEL", "ide": 476 }, "geometry": { "type": "Point", "coordinates": [ -67.15361785, 18.07863235 ] } },
{ "type": "Feature", "properties": { "COMPANY_NAME": "IGLESIA EVANGELICA UNIDA DE PR", "ide": 477 }, "geometry": { "type": "Point", "coordinates": [ -66.72114562, 18.05124092 ] } },
{ "type": "Feature", "properties": { "COMPANY_NAME": "PARROQUIA SAN JOSE", "ide": 478 }, "geometry": { "type": "Point", "coordinates": [ -66.84414672, 18.48373603 ] } },
{ "type": "Feature", "properties": { "COMPANY_NAME": "IGLESIA DE DIOS MISSION", "ide": 479 }, "geometry": { "type": "Point", "coordinates": [ -67.11971282, 18.14059638 ] } },
{ "type": "Feature", "properties": { "COMPANY_NAME": "PRIMERA IGLESIA BAUTISTA", "ide": 480 }, "geometry": { "type": "Point", "coordinates": [ -67.01992797, 18.49367904 ] } },
{ "type": "Feature", "properties": { "COMPANY_NAME": "LA IGLESIA DE JESUCRISTO", "ide": 481 }, "geometry": { "type": "Point", "coordinates": [ -67.01992797, 18.49367904 ] } },
{ "type": "Feature", "properties": { "COMPANY_NAME": "IGLESIA DE DIOS PENTECOSTAL", "ide": 482 }, "geometry": { "type": "Point", "coordinates": [ -67.01992797, 18.49367904 ] } },
{ "type": "Feature", "properties": { "COMPANY_NAME": "IGLESIA ASAMBLEA DE DIOS", "ide": 483 }, "geometry": { "type": "Point", "coordinates": [ -66.48123931, 18.42981338 ] } },
{ "type": "Feature", "properties": { "COMPANY_NAME": "PARROQUIA LA CANDELARIA", "ide": 484 }, "geometry": { "type": "Point", "coordinates": [ -66.48123931, 18.42981338 ] } },
{ "type": "Feature", "properties": { "COMPANY_NAME": "CABALLEROS CATOLICOS", "ide": 485 }, "geometry": { "type": "Point", "coordinates": [ -66.48123931, 18.42981338 ] } },
{ "type": "Feature", "properties": { "COMPANY_NAME": "PARROQUIA SANTA ROSA DE LIMA", "ide": 486 }, "geometry": { "type": "Point", "coordinates": [ -67.24945831, 18.34038734 ] } },
{ "type": "Feature", "properties": { "COMPANY_NAME": "BELLA VISTA SDA CHURCH", "ide": 487 }, "geometry": { "type": "Point", "coordinates": [ -67.13923645, 18.19213676 ] } },
{ "type": "Feature", "properties": { "COMPANY_NAME": "IGLESIA CRISTIANA HABACUC", "ide": 488 }, "geometry": { "type": "Point", "coordinates": [ -67.13658905, 18.20168876 ] } },
{ "type": "Feature", "properties": { "COMPANY_NAME": "IGLESIA PRESBITERIANA", "ide": 489 }, "geometry": { "type": "Point", "coordinates": [ -67.13923645, 18.19213676 ] } },
{ "type": "Feature", "properties": { "COMPANY_NAME": "IGLESIA CRISTIANA LA VINA", "ide": 490 }, "geometry": { "type": "Point", "coordinates": [ -67.13923645, 18.19213676 ] } },
{ "type": "Feature", "properties": { "COMPANY_NAME": "CENTRO COLEGIAL CRISTIANO INC", "ide": 491 }, "geometry": { "type": "Point", "coordinates": [ -67.14741516, 18.18855857 ] } },
{ "type": "Feature", "properties": { "COMPANY_NAME": "MISION RESCATE INC", "ide": 492 }, "geometry": { "type": "Point", "coordinates": [ -67.13923645, 18.19213676 ] } },
{ "type": "Feature", "properties": { "COMPANY_NAME": "IGLESIA DE DIOS MISSION BOARD", "ide": 493 }, "geometry": { "type": "Point", "coordinates": [ -67.15601348, 18.18848419 ] } },
{ "type": "Feature", "properties": { "COMPANY_NAME": "IGLESIA PRESBITERIANA LA", "ide": 494 }, "geometry": { "type": "Point", "coordinates": [ -67.15238189, 18.20856857 ] } },
{ "type": "Feature", "properties": { "COMPANY_NAME": "IGLESIA BIBLICA DEL CARIBE", "ide": 495 }, "geometry": { "type": "Point", "coordinates": [ -67.05494689, 18.08473205 ] } },
{ "type": "Feature", "properties": { "COMPANY_NAME": "PARROQUIA SAN SEBASTIEN MARTIR", "ide": 496 }, "geometry": { "type": "Point", "coordinates": [ -66.95519256, 18.27466392 ] } },
{ "type": "Feature", "properties": { "COMPANY_NAME": "NUEVA IGLESIA SINAI AIC", "ide": 497 }, "geometry": { "type": "Point", "coordinates": [ -66.32712554, 18.41960144 ] } },
{ "type": "Feature", "properties": { "COMPANY_NAME": "IGLESIA CRISTIANA DISCIPULOS", "ide": 498 }, "geometry": { "type": "Point", "coordinates": [ -66.32712554, 18.41960144 ] } },
{ "type": "Feature", "properties": { "COMPANY_NAME": "IGLESIA CRISTIANA DISCIPULOS", "ide": 499 }, "geometry": { "type": "Point", "coordinates": [ -66.32712554, 18.41960144 ] } },
{ "type": "Feature", "properties": { "COMPANY_NAME": "IGLESIA DISCIPULOS DE CRISTO", "ide": 500 }, "geometry": { "type": "Point", "coordinates": [ -66.32712554, 18.41960144 ] } },
{ "type": "Feature", "properties": { "COMPANY_NAME": "IGLESIA GETHSEMANE DE AIC", "ide": 501 }, "geometry": { "type": "Point", "coordinates": [ -66.40779113, 18.43309593 ] } },
{ "type": "Feature", "properties": { "COMPANY_NAME": "IGLESIA EPISCOPAL DEL PUEBLO", "ide": 502 }, "geometry": { "type": "Point", "coordinates": [ -66.84989929, 18.03590011 ] } },
{ "type": "Feature", "properties": { "COMPANY_NAME": "PRIMERA IGLESIA BAUTISTA-YAUCO", "ide": 503 }, "geometry": { "type": "Point", "coordinates": [ -66.85714721, 18.02775955 ] } },
{ "type": "Feature", "properties": { "COMPANY_NAME": "HERMETIC SOCIETY", "ide": 504 }, "geometry": { "type": "Point", "coordinates": [ -66.2647705, 18.13981246 ] } },
{ "type": "Feature", "properties": { "COMPANY_NAME": "IGLESIA CRISTIANA ROBLES", "ide": 505 }, "geometry": { "type": "Point", "coordinates": [ -66.0621643, 17.96410942 ] } },
{ "type": "Feature", "properties": { "COMPANY_NAME": "PARROQUIA NUESTRA SENORA DEL", "ide": 506 }, "geometry": { "type": "Point", "coordinates": [ -66.06142425, 17.9645729 ] } },
{ "type": "Feature", "properties": { "COMPANY_NAME": "IGLESIA BAUTISTA EL REDENTOR", "ide": 507 }, "geometry": { "type": "Point", "coordinates": [ -66.0621643, 17.96410942 ] } },
{ "type": "Feature", "properties": { "COMPANY_NAME": "PARROQUIA SAGRADO CORAZON", "ide": 508 }, "geometry": { "type": "Point", "coordinates": [ -65.88415527, 18.37909507 ] } },
{ "type": "Feature", "properties": { "COMPANY_NAME": "IGLESIA DIOS PENTECOSTAL INC", "ide": 509 }, "geometry": { "type": "Point", "coordinates": [ -66.61351776, 18.01862525 ] } },
{ "type": "Feature", "properties": { "COMPANY_NAME": "PARROQUIA SANTISIMO SACRAMENTO", "ide": 510 }, "geometry": { "type": "Point", "coordinates": [ -66.61351776, 18.01862525 ] } },
{ "type": "Feature", "properties": { "COMPANY_NAME": "TRIBUNAL INTERDIOCESANO-PONCE", "ide": 511 }, "geometry": { "type": "Point", "coordinates": [ -66.60990142, 18.01259994 ] } },
{ "type": "Feature", "properties": { "COMPANY_NAME": "IGLESIA EVANGELICA UNIDA", "ide": 512 }, "geometry": { "type": "Point", "coordinates": [ -66.6160736, 18.01033782 ] } },
{ "type": "Feature", "properties": { "COMPANY_NAME": "IGLESIA EVANGELICA UNIDA", "ide": 513 }, "geometry": { "type": "Point", "coordinates": [ -66.6160736, 18.01033782 ] } },
{ "type": "Feature", "properties": { "COMPANY_NAME": "COLEGIO JARDIN INFANTIL AMOR", "ide": 514 }, "geometry": { "type": "Point", "coordinates": [ -66.61351776, 18.01862525 ] } },
{ "type": "Feature", "properties": { "COMPANY_NAME": "IGLESIA BAUTISTA", "ide": 515 }, "geometry": { "type": "Point", "coordinates": [ -66.62739562, 18.10386085 ] } },
{ "type": "Feature", "properties": { "COMPANY_NAME": "IGLESIA SAN MARTIN DE PORRES", "ide": 516 }, "geometry": { "type": "Point", "coordinates": [ -66.62739562, 18.10386085 ] } },
{ "type": "Feature", "properties": { "COMPANY_NAME": "IGLESIA SANTISIMA TRINIDAD", "ide": 517 }, "geometry": { "type": "Point", "coordinates": [ -66.62739562, 18.10386085 ] } },
{ "type": "Feature", "properties": { "COMPANY_NAME": "CONGREGACION TESTIGOS JEHOVA", "ide": 518 }, "geometry": { "type": "Point", "coordinates": [ -66.62739562, 18.10386085 ] } },
{ "type": "Feature", "properties": { "COMPANY_NAME": "IGLESIA DE DIO PENTECOSTAL", "ide": 519 }, "geometry": { "type": "Point", "coordinates": [ -65.65438842, 18.33208847 ] } },
{ "type": "Feature", "properties": { "COMPANY_NAME": "IGLESIA DE DIO PENTECOSTAL", "ide": 520 }, "geometry": { "type": "Point", "coordinates": [ -65.65438842, 18.33208847 ] } },
{ "type": "Feature", "properties": { "COMPANY_NAME": "IGLESIA CRISTIANA DEL CAMINO", "ide": 521 }, "geometry": { "type": "Point", "coordinates": [ -65.65438842, 18.33208847 ] } },
{ "type": "Feature", "properties": { "COMPANY_NAME": "IGLESIA DEFENSORES DE LA FE", "ide": 522 }, "geometry": { "type": "Point", "coordinates": [ -65.87459564, 18.36842727 ] } },
{ "type": "Feature", "properties": { "COMPANY_NAME": "PRIMERA IGLESIA BAUTISTA", "ide": 523 }, "geometry": { "type": "Point", "coordinates": [ -65.86611938, 18.04055595 ] } },
{ "type": "Feature", "properties": { "COMPANY_NAME": "IGLESIA DE JESUCRISTO DE LOS", "ide": 524 }, "geometry": { "type": "Point", "coordinates": [ -65.72406768, 18.37330818 ] } },
{ "type": "Feature", "properties": { "COMPANY_NAME": "PRIMERA IGLESIA BAUTISTA", "ide": 525 }, "geometry": { "type": "Point", "coordinates": [ -66.11312866, 17.98918724 ] } },
{ "type": "Feature", "properties": { "COMPANY_NAME": "PADRES REDENTORISTAS", "ide": 526 }, "geometry": { "type": "Point", "coordinates": [ -66.11762237, 17.98419189 ] } },
{ "type": "Feature", "properties": { "COMPANY_NAME": "IGLESIA DE DIOS PENTECOSTAL MI", "ide": 527 }, "geometry": { "type": "Point", "coordinates": [ -66.11762237, 17.98419189 ] } },
{ "type": "Feature", "properties": { "COMPANY_NAME": "IGLESIA DE DIOS PENTECOSTAL", "ide": 528 }, "geometry": { "type": "Point", "coordinates": [ -65.82406616, 18.12225723 ] } },
{ "type": "Feature", "properties": { "COMPANY_NAME": "IGLESIA MISIONERA APOSENTO", "ide": 529 }, "geometry": { "type": "Point", "coordinates": [ -66.49732971, 18.02333831 ] } },
{ "type": "Feature", "properties": { "COMPANY_NAME": "JEWISH COMMUNITY CTR OF PR", "ide": 530 }, "geometry": { "type": "Point", "coordinates": [ -66.08098602, 18.4541397 ] } },
{ "type": "Feature", "properties": { "COMPANY_NAME": "IGLESIA BAUTISTA NAZARET", "ide": 531 }, "geometry": { "type": "Point", "coordinates": [ -66.0589981, 18.45149993 ] } },
{ "type": "Feature", "properties": { "COMPANY_NAME": "PARROQUIA SAN JORGE", "ide": 532 }, "geometry": { "type": "Point", "coordinates": [ -66.0589981, 18.45149993 ] } },
{ "type": "Feature", "properties": { "COMPANY_NAME": "IGLESIA METODISTA UNIDAD", "ide": 533 }, "geometry": { "type": "Point", "coordinates": [ -66.04885101, 18.44296455 ] } },
{ "type": "Feature", "properties": { "COMPANY_NAME": "IGLESIA DE DIOS MISSION BOARD", "ide": 534 }, "geometry": { "type": "Point", "coordinates": [ -66.04196166, 18.42496871 ] } },
{ "type": "Feature", "properties": { "COMPANY_NAME": "PARROQUIA SAN JOSE DE CAPARRA", "ide": 535 }, "geometry": { "type": "Point", "coordinates": [ -66.09790039, 18.3988552 ] } },
{ "type": "Feature", "properties": { "COMPANY_NAME": "TESTIGOS DE JEHOVA", "ide": 536 }, "geometry": { "type": "Point", "coordinates": [ -66.08903503, 18.4033966 ] } },
{ "type": "Feature", "properties": { "COMPANY_NAME": "PARROQUIA SANTA MARIA", "ide": 537 }, "geometry": { "type": "Point", "coordinates": [ -66.08620452, 18.39653968 ] } },
{ "type": "Feature", "properties": { "COMPANY_NAME": "IGLESIA CRISTIANA DISCIPULOS", "ide": 538 }, "geometry": { "type": "Point", "coordinates": [ -66.09120178, 18.39394378 ] } },
{ "type": "Feature", "properties": { "COMPANY_NAME": "IGLESIA DIOS PENTECOSTAL", "ide": 539 }, "geometry": { "type": "Point", "coordinates": [ -66.08802032, 18.39626884 ] } },
{ "type": "Feature", "properties": { "COMPANY_NAME": "IGLESIA EVANGELICA UNIDA", "ide": 540 }, "geometry": { "type": "Point", "coordinates": [ -66.08880615, 18.39261627 ] } },
{ "type": "Feature", "properties": { "COMPANY_NAME": "CAPARRA CHURCH OF CHRIST", "ide": 541 }, "geometry": { "type": "Point", "coordinates": [ -66.09326171, 18.39812278 ] } },
{ "type": "Feature", "properties": { "COMPANY_NAME": "IGLESIA METODISTA UNIDA LA", "ide": 542 }, "geometry": { "type": "Point", "coordinates": [ -66.03864288, 18.41306686 ] } },
{ "type": "Feature", "properties": { "COMPANY_NAME": "IGLESIA DEFENSORES DE LA FE DE", "ide": 543 }, "geometry": { "type": "Point", "coordinates": [ -66.04590606, 18.39674758 ] } },
{ "type": "Feature", "properties": { "COMPANY_NAME": "CENTRO ISLAMICO DE PUERTO RICO", "ide": 544 }, "geometry": { "type": "Point", "coordinates": [ -66.04560852, 18.39949989 ] } },
{ "type": "Feature", "properties": { "COMPANY_NAME": "HERMANAS FRANCISCANAS", "ide": 545 }, "geometry": { "type": "Point", "coordinates": [ -66.05130004, 18.40069961 ] } },
{ "type": "Feature", "properties": { "COMPANY_NAME": "PARROQUIA MARIA MADRE IGLESIA", "ide": 546 }, "geometry": { "type": "Point", "coordinates": [ -66.0701065, 18.39238357 ] } },
{ "type": "Feature", "properties": { "COMPANY_NAME": "PARROQUIA DEL ESPIRITU SANTO", "ide": 547 }, "geometry": { "type": "Point", "coordinates": [ -66.18000793, 18.45427894 ] } },
{ "type": "Feature", "properties": { "COMPANY_NAME": "IGLESIA BAUTISTA RIOS DE AQUA", "ide": 548 }, "geometry": { "type": "Point", "coordinates": [ -66.16614532, 18.44377326 ] } },
{ "type": "Feature", "properties": { "COMPANY_NAME": "IGLESIA DE DIOS PENTECOSTAL", "ide": 549 }, "geometry": { "type": "Point", "coordinates": [ -66.16339874, 18.35980033 ] } },
{ "type": "Feature", "properties": { "COMPANY_NAME": "IGLESIA PENTECOSTAL LA FE EN", "ide": 550 }, "geometry": { "type": "Point", "coordinates": [ -66.1608963, 18.36339187 ] } },
{ "type": "Feature", "properties": { "COMPANY_NAME": "IGLESIA DE DIOS MB", "ide": 551 }, "geometry": { "type": "Point", "coordinates": [ -66.1938095, 18.36502456 ] } },
{ "type": "Feature", "properties": { "COMPANY_NAME": "MOVIMIENTO JUAN XXIII", "ide": 552 }, "geometry": { "type": "Point", "coordinates": [ -66.18671417, 18.37244033 ] } },
{ "type": "Feature", "properties": { "COMPANY_NAME": "IGLESIA LUTERANA LA EPIFANIA", "ide": 553 }, "geometry": { "type": "Point", "coordinates": [ -66.18867492, 18.36790466 ] } },
{ "type": "Feature", "properties": { "COMPANY_NAME": "SEMINARIO STO TOMAS-VILLANUEVA", "ide": 554 }, "geometry": { "type": "Point", "coordinates": [ -66.18671417, 18.37244033 ] } },
{ "type": "Feature", "properties": { "COMPANY_NAME": "IGLESIA DISCIPULOS DE CRISTO", "ide": 555 }, "geometry": { "type": "Point", "coordinates": [ -66.19230651, 18.40237998 ] } },
{ "type": "Feature", "properties": { "COMPANY_NAME": "HERMANAS DE JESUS MEDIADOR", "ide": 556 }, "geometry": { "type": "Point", "coordinates": [ -66.15247344, 18.39084053 ] } },
{ "type": "Feature", "properties": { "COMPANY_NAME": "IGLESIA DE DIOS PENTECOSTAL", "ide": 557 }, "geometry": { "type": "Point", "coordinates": [ -66.15247344, 18.39084053 ] } },
{ "type": "Feature", "properties": { "COMPANY_NAME": "IGLESIA DE DIOS PENTECOSTAL", "ide": 558 }, "geometry": { "type": "Point", "coordinates": [ -66.15247344, 18.39084053 ] } },
{ "type": "Feature", "properties": { "COMPANY_NAME": "IGLESIA EVANGELICA LUTERNA SN", "ide": 559 }, "geometry": { "type": "Point", "coordinates": [ -66.15247344, 18.39084053 ] } },
{ "type": "Feature", "properties": { "COMPANY_NAME": "IGLESIA CRISTIANA CARISMATICA", "ide": 560 }, "geometry": { "type": "Point", "coordinates": [ -66.15247344, 18.39084053 ] } },
{ "type": "Feature", "properties": { "COMPANY_NAME": "IGLESIA CRISTIANA DISCIPULOS", "ide": 561 }, "geometry": { "type": "Point", "coordinates": [ -66.15247344, 18.39084053 ] } },
{ "type": "Feature", "properties": { "COMPANY_NAME": "IGLESIA CRISTO REINA", "ide": 562 }, "geometry": { "type": "Point", "coordinates": [ -66.10814666, 18.36501121 ] } },
{ "type": "Feature", "properties": { "COMPANY_NAME": "PARROQUIA SAGRADOS CORAZONES", "ide": 563 }, "geometry": { "type": "Point", "coordinates": [ -66.10264587, 18.37205886 ] } },
{ "type": "Feature", "properties": { "COMPANY_NAME": "CHRISTIAN COMMUNITY CHURCH", "ide": 564 }, "geometry": { "type": "Point", "coordinates": [ -66.10814666, 18.36501121 ] } },
{ "type": "Feature", "properties": { "COMPANY_NAME": "CONGREGACION CAIMITO TESTIGOS", "ide": 565 }, "geometry": { "type": "Point", "coordinates": [ -66.10814666, 18.36501121 ] } },
{ "type": "Feature", "properties": { "COMPANY_NAME": "PARROQUIA SANTA CECILIA", "ide": 566 }, "geometry": { "type": "Point", "coordinates": [ -66.02291107, 18.36417198 ] } },
{ "type": "Feature", "properties": { "COMPANY_NAME": "PARROQUIA DE SAN PIO X", "ide": 567 }, "geometry": { "type": "Point", "coordinates": [ -66.02291107, 18.36417198 ] } },
{ "type": "Feature", "properties": { "COMPANY_NAME": "IGLESIA HUC EL CALVARIO", "ide": 568 }, "geometry": { "type": "Point", "coordinates": [ -65.99949645, 18.37859916 ] } },
{ "type": "Feature", "properties": { "COMPANY_NAME": "IGLESIA BAUTISTA DE CUPEY", "ide": 569 }, "geometry": { "type": "Point", "coordinates": [ -66.02291107, 18.36417198 ] } },
{ "type": "Feature", "properties": { "COMPANY_NAME": "SANTA CONVOCACION", "ide": 570 }, "geometry": { "type": "Point", "coordinates": [ -65.99802398, 18.41350364 ] } },