{
"type": "FeatureCollection",
"name": "sectores",
"crs": { "type": "name", "properties": { "name": "urn:ogc:def:crs:OGC:1.3:CRS84" } },
"features": [
{ "type": "Feature", "properties": { "OBJECTID": 1.0, "NOMBRE": "La Perla", "TIPO": "COM", "Descrip": "Comunidad", "Municipio": "San Juan" }, "geometry": { "type": "Point", "coordinates": [ -66.116454, 18.468887 ] } },
{ "type": "Feature", "properties": { "OBJECTID": 2.0, "NOMBRE": "Viejo San Juan", "TIPO": "SECT", "Descrip": "Sector", "Municipio": "San Juan" }, "geometry": { "type": "Point", "coordinates": [ -66.115964, 18.465965 ] } },
{ "type": "Feature", "properties": { "OBJECTID": 3.0, "NOMBRE": "La Puntilla", "TIPO": "COND", "Descrip": "Condominio", "Municipio": "San Juan" }, "geometry": { "type": "Point", "coordinates": [ -66.116803, 18.461726 ] } },
{ "type": "Feature", "properties": { "OBJECTID": 4.0, "NOMBRE": "Parque de San Agustín", "TIPO": "RES", "Descrip": "Residencial", "Municipio": "San Juan" }, "geometry": { "type": "Point", "coordinates": [ -66.101852, 18.46473 ] } },
{ "type": "Feature", "properties": { "OBJECTID": 5.0, "NOMBRE": "Puerta de Tierra", "TIPO": "RES", "Descrip": "Residencial", "Municipio": "San Juan" }, "geometry": { "type": "Point", "coordinates": [ -66.099832, 18.463534 ] } },
{ "type": "Feature", "properties": { "OBJECTID": 6.0, "NOMBRE": "San Agustín", "TIPO": "RES", "Descrip": "Residencial", "Municipio": "San Juan" }, "geometry": { "type": "Point", "coordinates": [ -66.098066, 18.464304 ] } },
{ "type": "Feature", "properties": { "OBJECTID": 7.0, "NOMBRE": "Falansterio", "TIPO": "COND", "Descrip": "Condominio", "Municipio": "San Juan" }, "geometry": { "type": "Point", "coordinates": [ -66.096451, 18.463383 ] } },
{ "type": "Feature", "properties": { "OBJECTID": 8.0, "NOMBRE": "San Antonio", "TIPO": "RES", "Descrip": "Residencial", "Municipio": "San Juan" }, "geometry": { "type": "Point", "coordinates": [ -66.095141, 18.463316 ] } },
{ "type": "Feature", "properties": { "OBJECTID": 9.0, "NOMBRE": "Torre de la Reina", "TIPO": "COND", "Descrip": "Condominio", "Municipio": "San Juan" }, "geometry": { "type": "Point", "coordinates": [ -66.09347, 18.46418 ] } },
{ "type": "Feature", "properties": { "OBJECTID": 10.0, "NOMBRE": "Puerta de Tierra*", "TIPO": "SECT", "Descrip": "Sector", "Municipio": "San Juan" }, "geometry": { "type": "Point", "coordinates": [ -66.100122, 18.464813 ] } },
{ "type": "Feature", "properties": { "OBJECTID": 11.0, "NOMBRE": "Puerta de Tierra*", "TIPO": "SECT", "Descrip": "Sector", "Municipio": "San Juan" }, "geometry": { "type": "Point", "coordinates": [ -66.096783, 18.464417 ] } },
{ "type": "Feature", "properties": { "OBJECTID": 12.0, "NOMBRE": "Millenium", "TIPO": "COND", "Descrip": "Condominio", "Municipio": "San Juan" }, "geometry": { "type": "Point", "coordinates": [ -66.088972, 18.462206 ] } },
{ "type": "Feature", "properties": { "OBJECTID": 13.0, "NOMBRE": "Water View Mansions 613", "TIPO": "COND", "Descrip": "Condominio", "Municipio": "San Juan" }, "geometry": { "type": "Point", "coordinates": [ -66.085303, 18.45725 ] } },
{ "type": "Feature", "properties": { "OBJECTID": 14.0, "NOMBRE": "Bay View", "TIPO": "APTO", "Descrip": "Apartamentos", "Municipio": "San Juan" }, "geometry": { "type": "Point", "coordinates": [ -66.087087, 18.457077 ] } },
{ "type": "Feature", "properties": { "OBJECTID": 15.0, "NOMBRE": "Alhambra 618", "TIPO": "COND", "Descrip": "Condominio", "Municipio": "San Juan" }, "geometry": { "type": "Point", "coordinates": [ -66.085978, 18.455065 ] } },
{ "type": "Feature", "properties": { "OBJECTID": 16.0, "NOMBRE": "Elliot Hill", "TIPO": "APTO", "Descrip": "Apartamentos", "Municipio": "San Juan" }, "geometry": { "type": "Point", "coordinates": [ -66.086302, 18.454886 ] } },
{ "type": "Feature", "properties": { "OBJECTID": 17.0, "NOMBRE": "Hilltop 658", "TIPO": "COND", "Descrip": "Condominio", "Municipio": "San Juan" }, "geometry": { "type": "Point", "coordinates": [ -66.086152, 18.454526 ] } },
{ "type": "Feature", "properties": { "OBJECTID": 18.0, "NOMBRE": "El Cid 660", "TIPO": "COND", "Descrip": "Condominio", "Municipio": "San Juan" }, "geometry": { "type": "Point", "coordinates": [ -66.086341, 18.454076 ] } },
{ "type": "Feature", "properties": { "OBJECTID": 19.0, "NOMBRE": "Ocean Bay", "TIPO": "COND", "Descrip": "Condominio", "Municipio": "San Juan" }, "geometry": { "type": "Point", "coordinates": [ -66.085636, 18.455816 ] } },
{ "type": "Feature", "properties": { "OBJECTID": 20.0, "NOMBRE": "McKiley Court 653", "TIPO": "COND", "Descrip": "Condominio", "Municipio": "San Juan" }, "geometry": { "type": "Point", "coordinates": [ -66.084954, 18.455808 ] } },
{ "type": "Feature", "properties": { "OBJECTID": 21.0, "NOMBRE": "Residencias Alora 610", "TIPO": "APTO", "Descrip": "Apartamentos", "Municipio": "San Juan" }, "geometry": { "type": "Point", "coordinates": [ -66.08397, 18.454632 ] } },
{ "type": "Feature", "properties": { "OBJECTID": 22.0, "NOMBRE": "Residencias Brisamar", "TIPO": "APTO", "Descrip": "Apartamentos", "Municipio": "San Juan" }, "geometry": { "type": "Point", "coordinates": [ -66.084137, 18.454379 ] } },
{ "type": "Feature", "properties": { "OBJECTID": 23.0, "NOMBRE": "El Laurel 651", "TIPO": "COND", "Descrip": "Condominio", "Municipio": "San Juan" }, "geometry": { "type": "Point", "coordinates": [ -66.085646, 18.454443 ] } },
{ "type": "Feature", "properties": { "OBJECTID": 24.0, "NOMBRE": "Zahira 662", "TIPO": "COND", "Descrip": "Condominio", "Municipio": "San Juan" }, "geometry": { "type": "Point", "coordinates": [ -66.085633, 18.453525 ] } },
{ "type": "Feature", "properties": { "OBJECTID": 25.0, "NOMBRE": "Dos Torre 651", "TIPO": "COND", "Descrip": "Condominio", "Municipio": "San Juan" }, "geometry": { "type": "Point", "coordinates": [ -66.085847, 18.453379 ] } },
{ "type": "Feature", "properties": { "OBJECTID": 26.0, "NOMBRE": "Union Tower 711", "TIPO": "COND", "Descrip": "Condominio", "Municipio": "San Juan" }, "geometry": { "type": "Point", "coordinates": [ -66.084752, 18.451962 ] } },
{ "type": "Feature", "properties": { "OBJECTID": 27.0, "NOMBRE": "Carus", "TIPO": "COND", "Descrip": "Condominio", "Municipio": "San Juan" }, "geometry": { "type": "Point", "coordinates": [ -66.085188, 18.451822 ] } },
{ "type": "Feature", "properties": { "OBJECTID": 28.0, "NOMBRE": "Estado 709", "TIPO": "COND", "Descrip": "Condominio", "Municipio": "San Juan" }, "geometry": { "type": "Point", "coordinates": [ -66.084154, 18.45174 ] } },
{ "type": "Feature", "properties": { "OBJECTID": 29.0, "NOMBRE": "Residencias San José", "TIPO": "APTO", "Descrip": "Apartamentos", "Municipio": "San Juan" }, "geometry": { "type": "Point", "coordinates": [ -66.084152, 18.451575 ] } },
{ "type": "Feature", "properties": { "OBJECTID": 30.0, "NOMBRE": "Las Casas", "TIPO": "RES", "Descrip": "Residencial", "Municipio": "San Juan" }, "geometry": { "type": "Point", "coordinates": [ -66.044513, 18.435976 ] } },
{ "type": "Feature", "properties": { "OBJECTID": 31.0, "NOMBRE": "Las Margaritas", "TIPO": "RES", "Descrip": "Residencial", "Municipio": "San Juan" }, "geometry": { "type": "Point", "coordinates": [ -66.036847, 18.433899 ] } },
{ "type": "Feature", "properties": { "OBJECTID": 32.0, "NOMBRE": "Luis Llorens Torres*", "TIPO": "RES", "Descrip": "Residencial", "Municipio": "San Juan" }, "geometry": { "type": "Point", "coordinates": [ -66.041041, 18.44834 ] } },
{ "type": "Feature", "properties": { "OBJECTID": 33.0, "NOMBRE": "Luis Llorens Torres*", "TIPO": "RES", "Descrip": "Residencial", "Municipio": "San Juan" }, "geometry": { "type": "Point", "coordinates": [ -66.046513, 18.448401 ] } },
{ "type": "Feature", "properties": { "OBJECTID": 34.0, "NOMBRE": "Punta Las Marías", "TIPO": "URB", "Descrip": "Urbanización", "Municipio": "San Juan" }, "geometry": { "type": "Point", "coordinates": [ -66.039453, 18.452538 ] } },
{ "type": "Feature", "properties": { "OBJECTID": 35.0, "NOMBRE": "Park Boulevard", "TIPO": "COND", "Descrip": "Condominio", "Municipio": "San Juan" }, "geometry": { "type": "Point", "coordinates": [ -66.043031, 18.452512 ] } },
{ "type": "Feature", "properties": { "OBJECTID": 36.0, "NOMBRE": "Santa Teresita", "TIPO": "URB", "Descrip": "Urbanización", "Municipio": "San Juan" }, "geometry": { "type": "Point", "coordinates": [ -66.04528, 18.45116 ] } },
{ "type": "Feature", "properties": { "OBJECTID": 37.0, "NOMBRE": "The Terrace", "TIPO": "COND", "Descrip": "Condominio", "Municipio": "San Juan" }, "geometry": { "type": "Point", "coordinates": [ -66.043174, 18.451524 ] } },
{ "type": "Feature", "properties": { "OBJECTID": 38.0, "NOMBRE": "Costa Mar", "TIPO": "COND", "Descrip": "Condominio", "Municipio": "San Juan" }, "geometry": { "type": "Point", "coordinates": [ -66.038192, 18.451615 ] } },
{ "type": "Feature", "properties": { "OBJECTID": 39.0, "NOMBRE": "Emajagua", "TIPO": "COND", "Descrip": "Condominio", "Municipio": "San Juan" }, "geometry": { "type": "Point", "coordinates": [ -66.038976, 18.453893 ] } },
{ "type": "Feature", "properties": { "OBJECTID": 40.0, "NOMBRE": "Park Center", "TIPO": "COND", "Descrip": "Condominio", "Municipio": "San Juan" }, "geometry": { "type": "Point", "coordinates": [ -66.051225, 18.453291 ] } },
{ "type": "Feature", "properties": { "OBJECTID": 41.0, "NOMBRE": "España", "TIPO": "COND", "Descrip": "Condominio", "Municipio": "San Juan" }, "geometry": { "type": "Point", "coordinates": [ -66.051651, 18.453179 ] } },
{ "type": "Feature", "properties": { "OBJECTID": 42.0, "NOMBRE": "Ocean Park*", "TIPO": "URB", "Descrip": "Urbanización", "Municipio": "San Juan" }, "geometry": { "type": "Point", "coordinates": [ -66.052749, 18.452466 ] } },
{ "type": "Feature", "properties": { "OBJECTID": 43.0, "NOMBRE": "Ocean Park*", "TIPO": "URB", "Descrip": "Urbanización", "Municipio": "San Juan" }, "geometry": { "type": "Point", "coordinates": [ -66.056778, 18.453284 ] } },
{ "type": "Feature", "properties": { "OBJECTID": 44.0, "NOMBRE": "Chateau Mcleary", "TIPO": "COND", "Descrip": "Condominio", "Municipio": "San Juan" }, "geometry": { "type": "Point", "coordinates": [ -66.057804, 18.452184 ] } },
{ "type": "Feature", "properties": { "OBJECTID": 45.0, "NOMBRE": "Beach Court", "TIPO": "COND", "Descrip": "Condominio", "Municipio": "San Juan" }, "geometry": { "type": "Point", "coordinates": [ -66.059162, 18.452909 ] } },
{ "type": "Feature", "properties": { "OBJECTID": 46.0, "NOMBRE": "Carrión Court 5", "TIPO": "COND", "Descrip": "Condominio", "Municipio": "San Juan" }, "geometry": { "type": "Point", "coordinates": [ -66.058896, 18.453891 ] } },
{ "type": "Feature", "properties": { "OBJECTID": 47.0, "NOMBRE": "Playa Grande", "TIPO": "COND", "Descrip": "Condominio", "Municipio": "San Juan" }, "geometry": { "type": "Point", "coordinates": [ -66.059857, 18.453998 ] } },
{ "type": "Feature", "properties": { "OBJECTID": 48.0, "NOMBRE": "Carrión Court 3", "TIPO": "COND", "Descrip": "Condominio", "Municipio": "San Juan" }, "geometry": { "type": "Point", "coordinates": [ -66.058785, 18.454207 ] } },
{ "type": "Feature", "properties": { "OBJECTID": 49.0, "NOMBRE": "Carrión Court 16", "TIPO": "COND", "Descrip": "Condominio", "Municipio": "San Juan" }, "geometry": { "type": "Point", "coordinates": [ -66.059467, 18.453413 ] } },
{ "type": "Feature", "properties": { "OBJECTID": 50.0, "NOMBRE": "Granada", "TIPO": "COND", "Descrip": "Condominio", "Municipio": "San Juan" }, "geometry": { "type": "Point", "coordinates": [ -66.059902, 18.453032 ] } },
{ "type": "Feature", "properties": { "OBJECTID": 51.0, "NOMBRE": "Almirante 15", "TIPO": "COND", "Descrip": "Condominio", "Municipio": "San Juan" }, "geometry": { "type": "Point", "coordinates": [ -66.060156, 18.453333 ] } },
{ "type": "Feature", "properties": { "OBJECTID": 52.0, "NOMBRE": "El Sol", "TIPO": "COND", "Descrip": "Condominio", "Municipio": "San Juan" }, "geometry": { "type": "Point", "coordinates": [ -66.060063, 18.453495 ] } },
{ "type": "Feature", "properties": { "OBJECTID": 53.0, "NOMBRE": "Costa Azul", "TIPO": "COND", "Descrip": "Condominio", "Municipio": "San Juan" }, "geometry": { "type": "Point", "coordinates": [ -66.060189, 18.454226 ] } },
{ "type": "Feature", "properties": { "OBJECTID": 54.0, "NOMBRE": "Acacia", "TIPO": "COND", "Descrip": "Condominio", "Municipio": "San Juan" }, "geometry": { "type": "Point", "coordinates": [ -66.060283, 18.453772 ] } },
{ "type": "Feature", "properties": { "OBJECTID": 55.0, "NOMBRE": "Kingsville 63", "TIPO": "COND", "Descrip": "Condominio", "Municipio": "San Juan" }, "geometry": { "type": "Point", "coordinates": [ -66.061075, 18.453376 ] } },
{ "type": "Feature", "properties": { "OBJECTID": 56.0, "NOMBRE": "Chateau Lagoon", "TIPO": "COND", "Descrip": "Condominio", "Municipio": "San Juan" }, "geometry": { "type": "Point", "coordinates": [ -66.075371, 18.456885 ] } },
{ "type": "Feature", "properties": { "OBJECTID": 57.0, "NOMBRE": "Condado Center 1102", "TIPO": "COND", "Descrip": "Condominio", "Municipio": "San Juan" }, "geometry": { "type": "Point", "coordinates": [ -66.07467, 18.45659 ] } },
{ "type": "Feature", "properties": { "OBJECTID": 58.0, "NOMBRE": "Condado Key 65", "TIPO": "COND", "Descrip": "Condominio", "Municipio": "San Juan" }, "geometry": { "type": "Point", "coordinates": [ -66.075057, 18.455964 ] } },
{ "type": "Feature", "properties": { "OBJECTID": 59.0, "NOMBRE": "Marseilles 18", "TIPO": "COND", "Descrip": "Condominio", "Municipio": "San Juan" }, "geometry": { "type": "Point", "coordinates": [ -66.075288, 18.456206 ] } },
{ "type": "Feature", "properties": { "OBJECTID": 60.0, "NOMBRE": "Piccioni 1106", "TIPO": "COND", "Descrip": "Condominio", "Municipio": "San Juan" }, "geometry": { "type": "Point", "coordinates": [ -66.074973, 18.455394 ] } },
{ "type": "Feature", "properties": { "OBJECTID": 61.0, "NOMBRE": "Condado Towers 1115", "TIPO": "COND", "Descrip": "Condominio", "Municipio": "San Juan" }, "geometry": { "type": "Point", "coordinates": [ -66.074828, 18.455948 ] } },
{ "type": "Feature", "properties": { "OBJECTID": 62.0, "NOMBRE": "Carlos 1118", "TIPO": "COND", "Descrip": "Condominio", "Municipio": "San Juan" }, "geometry": { "type": "Point", "coordinates": [ -66.074207, 18.45498 ] } },
{ "type": "Feature", "properties": { "OBJECTID": 63.0, "NOMBRE": "Puerta del Condado 1095", "TIPO": "COND", "Descrip": "Condominio", "Municipio": "San Juan" }, "geometry": { "type": "Point", "coordinates": [ -66.074091, 18.454014 ] } },
{ "type": "Feature", "properties": { "OBJECTID": 64.0, "NOMBRE": "Vieques #1122", "TIPO": "COND", "Descrip": "Condominio", "Municipio": "San Juan" }, "geometry": { "type": "Point", "coordinates": [ -66.074331, 18.454167 ] } },
{ "type": "Feature", "properties": { "OBJECTID": 65.0, "NOMBRE": "Playa del Rey", "TIPO": "COND", "Descrip": "Condominio", "Municipio": "San Juan" }, "geometry": { "type": "Point", "coordinates": [ -66.071782, 18.456934 ] } },
{ "type": "Feature", "properties": { "OBJECTID": 66.0, "NOMBRE": "Earle 7", "TIPO": "COND", "Descrip": "Condominio", "Municipio": "San Juan" }, "geometry": { "type": "Point", "coordinates": [ -66.071836, 18.456624 ] } },
{ "type": "Feature", "properties": { "OBJECTID": 67.0, "NOMBRE": "Da Vinci 1131", "TIPO": "COND", "Descrip": "Condominio", "Municipio": "San Juan" }, "geometry": { "type": "Point", "coordinates": [ -66.072545, 18.456691 ] } },
{ "type": "Feature", "properties": { "OBJECTID": 68.0, "NOMBRE": "Vendig 3", "TIPO": "COND", "Descrip": "Condominio", "Municipio": "San Juan" }, "geometry": { "type": "Point", "coordinates": [ -66.072411, 18.456981 ] } },
{ "type": "Feature", "properties": { "OBJECTID": 69.0, "NOMBRE": "Villamar", "TIPO": "COND", "Descrip": "Condominio", "Municipio": "San Juan" }, "geometry": { "type": "Point", "coordinates": [ -66.072806, 18.456641 ] } },
{ "type": "Feature", "properties": { "OBJECTID": 70.0, "NOMBRE": "Sea View 1123", "TIPO": "COND", "Descrip": "Condominio", "Municipio": "San Juan" }, "geometry": { "type": "Point", "coordinates": [ -66.073055, 18.457359 ] } },
{ "type": "Feature", "properties": { "OBJECTID": 71.0, "NOMBRE": "Diplomat 1126", "TIPO": "COND", "Descrip": "Condominio", "Municipio": "San Juan" }, "geometry": { "type": "Point", "coordinates": [ -66.07253, 18.45611 ] } },
{ "type": "Feature", "properties": { "OBJECTID": 72.0, "NOMBRE": "Ashford 1124", "TIPO": "COND", "Descrip": "Condominio", "Municipio": "San Juan" }, "geometry": { "type": "Point", "coordinates": [ -66.072752, 18.456156 ] } },
{ "type": "Feature", "properties": { "OBJECTID": 73.0, "NOMBRE": "Totti 1117", "TIPO": "COND", "Descrip": "Condominio", "Municipio": "San Juan" }, "geometry": { "type": "Point", "coordinates": [ -66.073305, 18.456346 ] } },
{ "type": "Feature", "properties": { "OBJECTID": 74.0, "NOMBRE": "Din a 1160", "TIPO": "COND", "Descrip": "Condominio", "Municipio": "San Juan" }, "geometry": { "type": "Point", "coordinates": [ -66.072564, 18.45511 ] } },
{ "type": "Feature", "properties": { "OBJECTID": 75.0, "NOMBRE": "Magdalena Park 1202", "TIPO": "COND", "Descrip": "Condominio", "Municipio": "San Juan" }, "geometry": { "type": "Point", "coordinates": [ -66.072169, 18.454874 ] } },
{ "type": "Feature", "properties": { "OBJECTID": 76.0, "NOMBRE": "Condado 75", "TIPO": "COND", "Descrip": "Condominio", "Municipio": "San Juan" }, "geometry": { "type": "Point", "coordinates": [ -66.072859, 18.454131 ] } },
{ "type": "Feature", "properties": { "OBJECTID": 77.0, "NOMBRE": "Condado Mansions I #67", "TIPO": "COND", "Descrip": "Condominio", "Municipio": "San Juan" }, "geometry": { "type": "Point", "coordinates": [ -66.072086, 18.454165 ] } },
{ "type": "Feature", "properties": { "OBJECTID": 78.0, "NOMBRE": "Six Two", "TIPO": "COND", "Descrip": "Condominio", "Municipio": "San Juan" }, "geometry": { "type": "Point", "coordinates": [ -66.071968, 18.454567 ] } },
{ "type": "Feature", "properties": { "OBJECTID": 79.0, "NOMBRE": "Condado Mansions II #1213", "TIPO": "COND", "Descrip": "Condominio", "Municipio": "San Juan" }, "geometry": { "type": "Point", "coordinates": [ -66.071953, 18.453835 ] } },
{ "type": "Feature", "properties": { "OBJECTID": 80.0, "NOMBRE": "Luchetti Imperial", "TIPO": "COND", "Descrip": "Condominio", "Municipio": "San Juan" }, "geometry": { "type": "Point", "coordinates": [ -66.072284, 18.453764 ] } },
{ "type": "Feature", "properties": { "OBJECTID": 81.0, "NOMBRE": "Pasarella del Condado 1210", "TIPO": "COND", "Descrip": "Condominio", "Municipio": "San Juan" }, "geometry": { "type": "Point", "coordinates": [ -66.071237, 18.454494 ] } },
{ "type": "Feature", "properties": { "OBJECTID": 82.0, "NOMBRE": "Luchetti 1212", "TIPO": "COND", "Descrip": "Condominio", "Municipio": "San Juan" }, "geometry": { "type": "Point", "coordinates": [ -66.071608, 18.453476 ] } },
{ "type": "Feature", "properties": { "OBJECTID": 83.0, "NOMBRE": "Horizon House #1300", "TIPO": "COND", "Descrip": "Condominio", "Municipio": "San Juan" }, "geometry": { "type": "Point", "coordinates": [ -66.070536, 18.453363 ] } },
{ "type": "Feature", "properties": { "OBJECTID": 84.0, "NOMBRE": "San Gerónimo Apartments", "TIPO": "COND", "Descrip": "Condominio", "Municipio": "San Juan" }, "geometry": { "type": "Point", "coordinates": [ -66.08204, 18.460562 ] } },
{ "type": "Feature", "properties": { "OBJECTID": 85.0, "NOMBRE": "Flamboyán #864", "TIPO": "COND", "Descrip": "Condominio", "Municipio": "San Juan" }, "geometry": { "type": "Point", "coordinates": [ -66.081634, 18.460474 ] } },
{ "type": "Feature", "properties": { "OBJECTID": 86.0, "NOMBRE": "Miami", "TIPO": "COND", "Descrip": "Condominio", "Municipio": "San Juan" }, "geometry": { "type": "Point", "coordinates": [ -66.080523, 18.460398 ] } },
{ "type": "Feature", "properties": { "OBJECTID": 87.0, "NOMBRE": "Ashford Valencia #876", "TIPO": "COND", "Descrip": "Condominio", "Municipio": "San Juan" }, "geometry": { "type": "Point", "coordinates": [ -66.080047, 18.460297 ] } },
{ "type": "Feature", "properties": { "OBJECTID": 88.0, "NOMBRE": "Royal Pearl III #880", "TIPO": "COND", "Descrip": "Condominio", "Municipio": "San Juan" }, "geometry": { "type": "Point", "coordinates": [ -66.079776, 18.460231 ] } },
{ "type": "Feature", "properties": { "OBJECTID": 89.0, "NOMBRE": "The Ashford Lagoon Plaza 888", "TIPO": "COND", "Descrip": "Condominio", "Municipio": "San Juan" }, "geometry": { "type": "Point", "coordinates": [ -66.079465, 18.460108 ] } },
{ "type": "Feature", "properties": { "OBJECTID": 90.0, "NOMBRE": "El Mirador del Condado 1035", "TIPO": "COND", "Descrip": "Condominio", "Municipio": "San Juan" }, "geometry": { "type": "Point", "coordinates": [ -66.078222, 18.459918 ] } },
{ "type": "Feature", "properties": { "OBJECTID": 91.0, "NOMBRE": "Ashford Condominium 1000", "TIPO": "COND", "Descrip": "Condominio", "Municipio": "San Juan" }, "geometry": { "type": "Point", "coordinates": [ -66.078693, 18.459688 ] } },
{ "type": "Feature", "properties": { "OBJECTID": 92.0, "NOMBRE": "Barranquitas 1022", "TIPO": "COND", "Descrip": "Condominio", "Municipio": "San Juan" }, "geometry": { "type": "Point", "coordinates": [ -66.076667, 18.458486 ] } },
{ "type": "Feature", "properties": { "OBJECTID": 93.0, "NOMBRE": "La Rada 1020", "TIPO": "COND", "Descrip": "Condominio", "Municipio": "San Juan" }, "geometry": { "type": "Point", "coordinates": [ -66.076959, 18.458635 ] } },
{ "type": "Feature", "properties": { "OBJECTID": 94.0, "NOMBRE": "Condado Astor 1018", "TIPO": "EDIF", "Descrip": "Edificio", "Municipio": "San Juan" }, "geometry": { "type": "Point", "coordinates": [ -66.07743, 18.458837 ] } },
{ "type": "Feature", "properties": { "OBJECTID": 95.0, "NOMBRE": "Laguna Terrace", "TIPO": "COND", "Descrip": "Condominio", "Municipio": "San Juan" }, "geometry": { "type": "Point", "coordinates": [ -66.076074, 18.457044 ] } },
{ "type": "Feature", "properties": { "OBJECTID": 96.0, "NOMBRE": "Ritz", "TIPO": "COND", "Descrip": "Condominio", "Municipio": "San Juan" }, "geometry": { "type": "Point", "coordinates": [ -66.075844, 18.456362 ] } },
{ "type": "Feature", "properties": { "OBJECTID": 97.0, "NOMBRE": "Le Rivage 15", "TIPO": "COND", "Descrip": "Condominio", "Municipio": "San Juan" }, "geometry": { "type": "Point", "coordinates": [ -66.07588, 18.456045 ] } },
{ "type": "Feature", "properties": { "OBJECTID": 98.0, "NOMBRE": "Del Mar 20", "TIPO": "COND", "Descrip": "Condominio", "Municipio": "San Juan" }, "geometry": { "type": "Point", "coordinates": [ -66.075456, 18.455597 ] } },
{ "type": "Feature", "properties": { "OBJECTID": 99.0, "NOMBRE": "Bahía Palace 69", "TIPO": "APTO", "Descrip": "Apartamentos", "Municipio": "San Juan" }, "geometry": { "type": "Point", "coordinates": [ -66.075213, 18.45544 ] } },
{ "type": "Feature", "properties": { "OBJECTID": 100.0, "NOMBRE": "Piccioni Apartments 1113", "TIPO": "APTO", "Descrip": "Apartamentos", "Municipio": "San Juan" }, "geometry": { "type": "Point", "coordinates": [ -66.075107, 18.455761 ] } },
{ "type": "Feature", "properties": { "OBJECTID": 101.0, "NOMBRE": "Ripoll 59", "TIPO": "APTO", "Descrip": "Apartamentos", "Municipio": "San Juan" }, "geometry": { "type": "Point", "coordinates": [ -66.074922, 18.456242 ] } },
{ "type": "Feature", "properties": { "OBJECTID": 102.0, "NOMBRE": "Carmen Gabriela", "TIPO": "APTO", "Descrip": "Apartamentos", "Municipio": "San Juan" }, "geometry": { "type": "Point", "coordinates": [ -66.073916, 18.454712 ] } },
{ "type": "Feature", "properties": { "OBJECTID": 103.0, "NOMBRE": "Luisa 55", "TIPO": "COND", "Descrip": "Condominio", "Municipio": "San Juan" }, "geometry": { "type": "Point", "coordinates": [ -66.073609, 18.455169 ] } },
{ "type": "Feature", "properties": { "OBJECTID": 104.0, "NOMBRE": "Stella Maris 1", "TIPO": "COND", "Descrip": "Condominio", "Municipio": "San Juan" }, "geometry": { "type": "Point", "coordinates": [ -66.071454, 18.457035 ] } },
{ "type": "Feature", "properties": { "OBJECTID": 105.0, "NOMBRE": "El Plaza 1214", "TIPO": "COND", "Descrip": "Condominio", "Municipio": "San Juan" }, "geometry": { "type": "Point", "coordinates": [ -66.070864, 18.45441 ] } },
{ "type": "Feature", "properties": { "OBJECTID": 106.0, "NOMBRE": "Roman Mansion #1223", "TIPO": "COND", "Descrip": "Condominio", "Municipio": "San Juan" }, "geometry": { "type": "Point", "coordinates": [ -66.07092, 18.454114 ] } },
{ "type": "Feature", "properties": { "OBJECTID": 107.0, "NOMBRE": "The Plaza at Luchetti #1221", "TIPO": "COND", "Descrip": "Condominio", "Municipio": "San Juan" }, "geometry": { "type": "Point", "coordinates": [ -66.071263, 18.454066 ] } },
{ "type": "Feature", "properties": { "OBJECTID": 108.0, "NOMBRE": "Park Lane 65", "TIPO": "COND", "Descrip": "Condominio", "Municipio": "San Juan" }, "geometry": { "type": "Point", "coordinates": [ -66.071847, 18.454312 ] } },
{ "type": "Feature", "properties": { "OBJECTID": 109.0, "NOMBRE": "Piedrahita 69", "TIPO": "COND", "Descrip": "Condominio", "Municipio": "San Juan" }, "geometry": { "type": "Point", "coordinates": [ -66.072319, 18.454195 ] } },
{ "type": "Feature", "properties": { "OBJECTID": 110.0, "NOMBRE": "Plaza del Condado 64", "TIPO": "COND", "Descrip": "Condominio", "Municipio": "San Juan" }, "geometry": { "type": "Point", "coordinates": [ -66.072931, 18.454873 ] } },
{ "type": "Feature", "properties": { "OBJECTID": 111.0, "NOMBRE": "Elbal Tower 59", "TIPO": "COND", "Descrip": "Condominio", "Municipio": "San Juan" }, "geometry": { "type": "Point", "coordinates": [ -66.072083, 18.455351 ] } },
{ "type": "Feature", "properties": { "OBJECTID": 112.0, "NOMBRE": "Vilarna 57", "TIPO": "COND", "Descrip": "Condominio", "Municipio": "San Juan" }, "geometry": { "type": "Point", "coordinates": [ -66.071964, 18.455442 ] } },
{ "type": "Feature", "properties": { "OBJECTID": 113.0, "NOMBRE": "Caribe #60", "TIPO": "COND", "Descrip": "Condominio", "Municipio": "San Juan" }, "geometry": { "type": "Point", "coordinates": [ -66.070817, 18.454938 ] } },
{ "type": "Feature", "properties": { "OBJECTID": 114.0, "NOMBRE": "Lores 1219", "TIPO": "COND", "Descrip": "Condominio", "Municipio": "San Juan" }, "geometry": { "type": "Point", "coordinates": [ -66.070854, 18.454716 ] } },
{ "type": "Feature", "properties": { "OBJECTID": 115.0, "NOMBRE": "Elbal Gardens 1217", "TIPO": "COND", "Descrip": "Condominio", "Municipio": "San Juan" }, "geometry": { "type": "Point", "coordinates": [ -66.071138, 18.454817 ] } },
{ "type": "Feature", "properties": { "OBJECTID": 116.0, "NOMBRE": "Royal Pearl II #884", "TIPO": "COND", "Descrip": "Condominio", "Municipio": "San Juan" }, "geometry": { "type": "Point", "coordinates": [ -66.079609, 18.460087 ] } },
{ "type": "Feature", "properties": { "OBJECTID": 117.0, "NOMBRE": "Ashford 890", "TIPO": "COND", "Descrip": "Condominio", "Municipio": "San Juan" }, "geometry": { "type": "Point", "coordinates": [ -66.079167, 18.459942 ] } },
{ "type": "Feature", "properties": { "OBJECTID": 118.0, "NOMBRE": "Regatta Condominium #996", "TIPO": "COND", "Descrip": "Condominio", "Municipio": "San Juan" }, "geometry": { "type": "Point", "coordinates": [ -66.07893, 18.459898 ] } },
{ "type": "Feature", "properties": { "OBJECTID": 119.0, "NOMBRE": "Bahía Mar 52", "TIPO": "COND", "Descrip": "Condominio", "Municipio": "San Juan" }, "geometry": { "type": "Point", "coordinates": [ -66.076851, 18.458154 ] } },
{ "type": "Feature", "properties": { "OBJECTID": 120.0, "NOMBRE": "Vanderbilt Lagoon Condominium", "TIPO": "COND", "Descrip": "Condominio", "Municipio": "San Juan" }, "geometry": { "type": "Point", "coordinates": [ -66.076506, 18.457862 ] } },
{ "type": "Feature", "properties": { "OBJECTID": 121.0, "NOMBRE": "Bristol 1052", "TIPO": "COND", "Descrip": "Condominio", "Municipio": "San Juan" }, "geometry": { "type": "Point", "coordinates": [ -66.075744, 18.457951 ] } },
{ "type": "Feature", "properties": { "OBJECTID": 122.0, "NOMBRE": "Santa Teresa 650", "TIPO": "COND", "Descrip": "Condominio", "Municipio": "San Juan" }, "geometry": { "type": "Point", "coordinates": [ -66.083481, 18.453994 ] } },
{ "type": "Feature", "properties": { "OBJECTID": 123.0, "NOMBRE": "Casa Blanca 652", "TIPO": "COND", "Descrip": "Condominio", "Municipio": "San Juan" }, "geometry": { "type": "Point", "coordinates": [ -66.083681, 18.453729 ] } },
{ "type": "Feature", "properties": { "OBJECTID": 124.0, "NOMBRE": "Estado 656", "TIPO": "COND", "Descrip": "Condominio", "Municipio": "San Juan" }, "geometry": { "type": "Point", "coordinates": [ -66.083829, 18.453417 ] } },
{ "type": "Feature", "properties": { "OBJECTID": 125.0, "NOMBRE": "Victoria Court 660", "TIPO": "COND", "Descrip": "Condominio", "Municipio": "San Juan" }, "geometry": { "type": "Point", "coordinates": [ -66.083925, 18.453181 ] } },
{ "type": "Feature", "properties": { "OBJECTID": 126.0, "NOMBRE": "José Martí 800", "TIPO": "COND", "Descrip": "Condominio", "Municipio": "San Juan" }, "geometry": { "type": "Point", "coordinates": [ -66.08317, 18.453922 ] } },
{ "type": "Feature", "properties": { "OBJECTID": 127.0, "NOMBRE": "Felices 653", "TIPO": "COND", "Descrip": "Condominio", "Municipio": "San Juan" }, "geometry": { "type": "Point", "coordinates": [ -66.083987, 18.454114 ] } },
{ "type": "Feature", "properties": { "OBJECTID": 128.0, "NOMBRE": "Vilamayo 665", "TIPO": "COND", "Descrip": "Condominio", "Municipio": "San Juan" }, "geometry": { "type": "Point", "coordinates": [ -66.084292, 18.453224 ] } },
{ "type": "Feature", "properties": { "OBJECTID": 129.0, "NOMBRE": "Las Mercedes", "TIPO": "APTO", "Descrip": "Apartamentos", "Municipio": "San Juan" }, "geometry": { "type": "Point", "coordinates": [ -66.084812, 18.456968 ] } },
{ "type": "Feature", "properties": { "OBJECTID": 130.0, "NOMBRE": "Palma Real", "TIPO": "COND", "Descrip": "Condominio", "Municipio": "San Juan" }, "geometry": { "type": "Point", "coordinates": [ -66.083151, 18.456397 ] } },
{ "type": "Feature", "properties": { "OBJECTID": 131.0, "NOMBRE": "San Rafael", "TIPO": "COND", "Descrip": "Condominio", "Municipio": "San Juan" }, "geometry": { "type": "Point", "coordinates": [ -66.083841, 18.456746 ] } },
{ "type": "Feature", "properties": { "OBJECTID": 132.0, "NOMBRE": "Vista Bella 661", "TIPO": "COND", "Descrip": "Condominio", "Municipio": "San Juan" }, "geometry": { "type": "Point", "coordinates": [ -66.084172, 18.456442 ] } },
{ "type": "Feature", "properties": { "OBJECTID": 133.0, "NOMBRE": "Lake Shore", "TIPO": "COND", "Descrip": "Condominio", "Municipio": "San Juan" }, "geometry": { "type": "Point", "coordinates": [ -66.082695, 18.456649 ] } },
{ "type": "Feature", "properties": { "OBJECTID": 134.0, "NOMBRE": "Covadonga 550", "TIPO": "COND", "Descrip": "Condominio", "Municipio": "San Juan" }, "geometry": { "type": "Point", "coordinates": [ -66.082305, 18.456838 ] } },
{ "type": "Feature", "properties": { "OBJECTID": 135.0, "NOMBRE": "San José 555", "TIPO": "COND", "Descrip": "Condominio", "Municipio": "San Juan" }, "geometry": { "type": "Point", "coordinates": [ -66.081995, 18.456726 ] } },
{ "type": "Feature", "properties": { "OBJECTID": 136.0, "NOMBRE": "San José 602", "TIPO": "COND", "Descrip": "Condominio", "Municipio": "San Juan" }, "geometry": { "type": "Point", "coordinates": [ -66.081592, 18.456566 ] } },
{ "type": "Feature", "properties": { "OBJECTID": 137.0, "NOMBRE": "Cuevillas 554", "TIPO": "COND", "Descrip": "Condominio", "Municipio": "San Juan" }, "geometry": { "type": "Point", "coordinates": [ -66.082384, 18.456613 ] } },
{ "type": "Feature", "properties": { "OBJECTID": 138.0, "NOMBRE": "Cuevillas Court Condominium 556", "TIPO": "COND", "Descrip": "Condominio", "Municipio": "San Juan" }, "geometry": { "type": "Point", "coordinates": [ -66.082459, 18.456463 ] } },
{ "type": "Feature", "properties": { "OBJECTID": 139.0, "NOMBRE": "Cuevillas 558", "TIPO": "COND", "Descrip": "Condominio", "Municipio": "San Juan" }, "geometry": { "type": "Point", "coordinates": [ -66.082505, 18.456206 ] } },
{ "type": "Feature", "properties": { "OBJECTID": 140.0, "NOMBRE": "Villa Grufe", "TIPO": "APTO", "Descrip": "Apartamentos", "Municipio": "San Juan" }, "geometry": { "type": "Point", "coordinates": [ -66.082319, 18.456131 ] } },
{ "type": "Feature", "properties": { "OBJECTID": 141.0, "NOMBRE": "Alcázar 562", "TIPO": "COND", "Descrip": "Condominio", "Municipio": "San Juan" }, "geometry": { "type": "Point", "coordinates": [ -66.081733, 18.455359 ] } },
{ "type": "Feature", "properties": { "OBJECTID": 142.0, "NOMBRE": "El Dorado 563", "TIPO": "COND", "Descrip": "Condominio", "Municipio": "San Juan" }, "geometry": { "type": "Point", "coordinates": [ -66.081348, 18.455378 ] } },
{ "type": "Feature", "properties": { "OBJECTID": 143.0, "NOMBRE": "Rocha 855", "TIPO": "COND", "Descrip": "Condominio", "Municipio": "San Juan" }, "geometry": { "type": "Point", "coordinates": [ -66.08115, 18.455148 ] } },
{ "type": "Feature", "properties": { "OBJECTID": 144.0, "NOMBRE": "Lagomar 857", "TIPO": "COND", "Descrip": "Condominio", "Municipio": "San Juan" }, "geometry": { "type": "Point", "coordinates": [ -66.080989, 18.455164 ] } },
{ "type": "Feature", "properties": { "OBJECTID": 145.0, "NOMBRE": "Laguna", "TIPO": "COND", "Descrip": "Condominio", "Municipio": "San Juan" }, "geometry": { "type": "Point", "coordinates": [ -66.079262, 18.455496 ] } },
{ "type": "Feature", "properties": { "OBJECTID": 146.0, "NOMBRE": "Avellano 559", "TIPO": "COND", "Descrip": "Condominio", "Municipio": "San Juan" }, "geometry": { "type": "Point", "coordinates": [ -66.081933, 18.456318 ] } },
{ "type": "Feature", "properties": { "OBJECTID": 147.0, "NOMBRE": "Mc Kinley 659", "TIPO": "COND", "Descrip": "Condominio", "Municipio": "San Juan" }, "geometry": { "type": "Point", "coordinates": [ -66.084455, 18.455565 ] } },
{ "type": "Feature", "properties": { "OBJECTID": 148.0, "NOMBRE": "Cuevillas 609", "TIPO": "COND", "Descrip": "Condominio", "Municipio": "San Juan" }, "geometry": { "type": "Point", "coordinates": [ -66.083103, 18.454514 ] } },
{ "type": "Feature", "properties": { "OBJECTID": 149.0, "NOMBRE": "Josefina 803", "TIPO": "COND", "Descrip": "Condominio", "Municipio": "San Juan" }, "geometry": { "type": "Point", "coordinates": [ -66.083126, 18.454187 ] } },
{ "type": "Feature", "properties": { "OBJECTID": 150.0, "NOMBRE": "La Paz 666", "TIPO": "COND", "Descrip": "Condominio", "Municipio": "San Juan" }, "geometry": { "type": "Point", "coordinates": [ -66.083282, 18.452796 ] } },
{ "type": "Feature", "properties": { "OBJECTID": 151.0, "NOMBRE": "710", "TIPO": "COND", "Descrip": "Condominio", "Municipio": "San Juan" }, "geometry": { "type": "Point", "coordinates": [ -66.083808, 18.451523 ] } },
{ "type": "Feature", "properties": { "OBJECTID": 152.0, "NOMBRE": "Villa Candy 718", "TIPO": "COND", "Descrip": "Condominio", "Municipio": "San Juan" }, "geometry": { "type": "Point", "coordinates": [ -66.083367, 18.452382 ] } },
{ "type": "Feature", "properties": { "OBJECTID": 153.0, "NOMBRE": "Miramar Plaza 954", "TIPO": "COND", "Descrip": "Condominio", "Municipio": "San Juan" }, "geometry": { "type": "Point", "coordinates": [ -66.079993, 18.453913 ] } },
{ "type": "Feature", "properties": { "OBJECTID": 154.0, "NOMBRE": "Rivera Vega", "TIPO": "EDIF", "Descrip": "Edificio", "Municipio": "San Juan" }, "geometry": { "type": "Point", "coordinates": [ -66.080167, 18.451564 ] } },
{ "type": "Feature", "properties": { "OBJECTID": 155.0, "NOMBRE": "Taguada 724", "TIPO": "EDIF", "Descrip": "Edificio", "Municipio": "San Juan" }, "geometry": { "type": "Point", "coordinates": [ -66.080937, 18.449891 ] } },
{ "type": "Feature", "properties": { "OBJECTID": 156.0, "NOMBRE": "Baleares 602", "TIPO": "COND", "Descrip": "Condominio", "Municipio": "San Juan" }, "geometry": { "type": "Point", "coordinates": [ -66.080388, 18.453839 ] } },
{ "type": "Feature", "properties": { "OBJECTID": 157.0, "NOMBRE": "Kings Court Terrace 61", "TIPO": "COND", "Descrip": "Condominio", "Municipio": "San Juan" }, "geometry": { "type": "Point", "coordinates": [ -66.060923, 18.453658 ] } },
{ "type": "Feature", "properties": { "OBJECTID": 158.0, "NOMBRE": "Kings Court Playa 59", "TIPO": "COND", "Descrip": "Condominio", "Municipio": "San Juan" }, "geometry": { "type": "Point", "coordinates": [ -66.060594, 18.45419 ] } },
{ "type": "Feature", "properties": { "OBJECTID": 159.0, "NOMBRE": "Ocean Court 51", "TIPO": "COND", "Descrip": "Condominio", "Municipio": "San Juan" }, "geometry": { "type": "Point", "coordinates": [ -66.060881, 18.454465 ] } },
{ "type": "Feature", "properties": { "OBJECTID": 160.0, "NOMBRE": "Santa Rita", "TIPO": "COND", "Descrip": "Condominio", "Municipio": "San Juan" }, "geometry": { "type": "Point", "coordinates": [ -66.061424, 18.453737 ] } },
{ "type": "Feature", "properties": { "OBJECTID": 161.0, "NOMBRE": "Ashford Park 54", "TIPO": "COND", "Descrip": "Condominio", "Municipio": "San Juan" }, "geometry": { "type": "Point", "coordinates": [ -66.061522, 18.454129 ] } },
{ "type": "Feature", "properties": { "OBJECTID": 162.0, "NOMBRE": "Kings Court 52", "TIPO": "COND", "Descrip": "Condominio", "Municipio": "San Juan" }, "geometry": { "type": "Point", "coordinates": [ -66.061308, 18.454489 ] } },
{ "type": "Feature", "properties": { "OBJECTID": 163.0, "NOMBRE": "Taft Center 50", "TIPO": "COND", "Descrip": "Condominio", "Municipio": "San Juan" }, "geometry": { "type": "Point", "coordinates": [ -66.060687, 18.452913 ] } },
{ "type": "Feature", "properties": { "OBJECTID": 164.0, "NOMBRE": "Taft 60", "TIPO": "COND", "Descrip": "Condominio", "Municipio": "San Juan" }, "geometry": { "type": "Point", "coordinates": [ -66.06105, 18.452098 ] } },
{ "type": "Feature", "properties": { "OBJECTID": 165.0, "NOMBRE": "Lourdes 58", "TIPO": "COND", "Descrip": "Condominio", "Municipio": "San Juan" }, "geometry": { "type": "Point", "coordinates": [ -66.06091, 18.4522 ] } },
{ "type": "Feature", "properties": { "OBJECTID": 166.0, "NOMBRE": "Taft 61", "TIPO": "COND", "Descrip": "Condominio", "Municipio": "San Juan" }, "geometry": { "type": "Point", "coordinates": [ -66.060656, 18.452097 ] } },
{ "type": "Feature", "properties": { "OBJECTID": 167.0, "NOMBRE": "Condado Real 1700", "TIPO": "COND", "Descrip": "Condominio", "Municipio": "San Juan" }, "geometry": { "type": "Point", "coordinates": [ -66.061163, 18.453094 ] } },
{ "type": "Feature", "properties": { "OBJECTID": 168.0, "NOMBRE": "Kings Court 81", "TIPO": "COND", "Descrip": "Condominio", "Municipio": "San Juan" }, "geometry": { "type": "Point", "coordinates": [ -66.061394, 18.452365 ] } },
{ "type": "Feature", "properties": { "OBJECTID": 169.0, "NOMBRE": "Kings Court 80", "TIPO": "COND", "Descrip": "Condominio", "Municipio": "San Juan" }, "geometry": { "type": "Point", "coordinates": [ -66.06192, 18.452437 ] } },
{ "type": "Feature", "properties": { "OBJECTID": 170.0, "NOMBRE": "Kings Court Tower 78", "TIPO": "COND", "Descrip": "Condominio", "Municipio": "San Juan" }, "geometry": { "type": "Point", "coordinates": [ -66.061796, 18.452703 ] } },
{ "type": "Feature", "properties": { "OBJECTID": 171.0, "NOMBRE": "Kings Court 76", "TIPO": "COND", "Descrip": "Condominio", "Municipio": "San Juan" }, "geometry": { "type": "Point", "coordinates": [ -66.061804, 18.453001 ] } },
{ "type": "Feature", "properties": { "OBJECTID": 172.0, "NOMBRE": "Prila 70", "TIPO": "COND", "Descrip": "Condominio", "Municipio": "San Juan" }, "geometry": { "type": "Point", "coordinates": [ -66.061794, 18.453471 ] } },
{ "type": "Feature", "properties": { "OBJECTID": 173.0, "NOMBRE": "Condado Terrace", "TIPO": "COND", "Descrip": "Condominio", "Municipio": "San Juan" }, "geometry": { "type": "Point", "coordinates": [ -66.061851, 18.453793 ] } },
{ "type": "Feature", "properties": { "OBJECTID": 174.0, "NOMBRE": "Tenerife", "TIPO": "COND", "Descrip": "Condominio", "Municipio": "San Juan" }, "geometry": { "type": "Point", "coordinates": [ -66.061677, 18.454592 ] } },
{ "type": "Feature", "properties": { "OBJECTID": 175.0, "NOMBRE": "Las Olas 1503", "TIPO": "COND", "Descrip": "Condominio", "Municipio": "San Juan" }, "geometry": { "type": "Point", "coordinates": [ -66.062523, 18.454805 ] } },
{ "type": "Feature", "properties": { "OBJECTID": 176.0, "NOMBRE": "Park Terrace 1501", "TIPO": "COND", "Descrip": "Condominio", "Municipio": "San Juan" }, "geometry": { "type": "Point", "coordinates": [ -66.062802, 18.4549 ] } },
{ "type": "Feature", "properties": { "OBJECTID": 177.0, "NOMBRE": "Ashford Plaza 1510", "TIPO": "COND", "Descrip": "Condominio", "Municipio": "San Juan" }, "geometry": { "type": "Point", "coordinates": [ -66.062622, 18.454272 ] } },
{ "type": "Feature", "properties": { "OBJECTID": 178.0, "NOMBRE": "Sea View 1504", "TIPO": "COND", "Descrip": "Condominio", "Municipio": "San Juan" }, "geometry": { "type": "Point", "coordinates": [ -66.063246, 18.454313 ] } },
{ "type": "Feature", "properties": { "OBJECTID": 179.0, "NOMBRE": "Sisila 55", "TIPO": "COND", "Descrip": "Condominio", "Municipio": "San Juan" }, "geometry": { "type": "Point", "coordinates": [ -66.06328, 18.454031 ] } },
{ "type": "Feature", "properties": { "OBJECTID": 180.0, "NOMBRE": "Maribel Apartments 1507", "TIPO": "APTO", "Descrip": "Apartamentos", "Municipio": "San Juan" }, "geometry": { "type": "Point", "coordinates": [ -66.062876, 18.453843 ] } },
{ "type": "Feature", "properties": { "OBJECTID": 181.0, "NOMBRE": "Monterey", "TIPO": "COND", "Descrip": "Condominio", "Municipio": "San Juan" }, "geometry": { "type": "Point", "coordinates": [ -66.063638, 18.452472 ] } },
{ "type": "Feature", "properties": { "OBJECTID": 182.0, "NOMBRE": "Guayama", "TIPO": "APTO", "Descrip": "Apartamentos", "Municipio": "San Juan" }, "geometry": { "type": "Point", "coordinates": [ -66.063177, 18.45213 ] } },
{ "type": "Feature", "properties": { "OBJECTID": 183.0, "NOMBRE": "Los Molinos", "TIPO": "COND", "Descrip": "Condominio", "Municipio": "San Juan" }, "geometry": { "type": "Point", "coordinates": [ -66.06885, 18.455792 ] } },
{ "type": "Feature", "properties": { "OBJECTID": 184.0, "NOMBRE": "Dulcinea 9", "TIPO": "COND", "Descrip": "Condominio", "Municipio": "San Juan" }, "geometry": { "type": "Point", "coordinates": [ -66.068894, 18.456005 ] } },
{ "type": "Feature", "properties": { "OBJECTID": 185.0, "NOMBRE": "Quijote 7", "TIPO": "COND", "Descrip": "Condominio", "Municipio": "San Juan" }, "geometry": { "type": "Point", "coordinates": [ -66.068874, 18.456195 ] } },
{ "type": "Feature", "properties": { "OBJECTID": 186.0, "NOMBRE": "Cervantes 1", "TIPO": "COND", "Descrip": "Condominio", "Municipio": "San Juan" }, "geometry": { "type": "Point", "coordinates": [ -66.068824, 18.456854 ] } },
{ "type": "Feature", "properties": { "OBJECTID": 187.0, "NOMBRE": "Cervantes 8", "TIPO": "COND", "Descrip": "Condominio", "Municipio": "San Juan" }, "geometry": { "type": "Point", "coordinates": [ -66.069321, 18.456154 ] } },
{ "type": "Feature", "properties": { "OBJECTID": 188.0, "NOMBRE": "Ashford Caribe 1300", "TIPO": "COND", "Descrip": "Condominio", "Municipio": "San Juan" }, "geometry": { "type": "Point", "coordinates": [ -66.070348, 18.455539 ] } },
{ "type": "Feature", "properties": { "OBJECTID": 189.0, "NOMBRE": "Maga 1303", "TIPO": "COND", "Descrip": "Condominio", "Municipio": "San Juan" }, "geometry": { "type": "Point", "coordinates": [ -66.070179, 18.454421 ] } },
{ "type": "Feature", "properties": { "OBJECTID": 190.0, "NOMBRE": "Magdalena 1305", "TIPO": "COND", "Descrip": "Condominio", "Municipio": "San Juan" }, "geometry": { "type": "Point", "coordinates": [ -66.069987, 18.454471 ] } },
{ "type": "Feature", "properties": { "OBJECTID": 191.0, "NOMBRE": "Placid Park 1307", "TIPO": "COND", "Descrip": "Condominio", "Municipio": "San Juan" }, "geometry": { "type": "Point", "coordinates": [ -66.069815, 18.454388 ] } },
{ "type": "Feature", "properties": { "OBJECTID": 192.0, "NOMBRE": "Magdalena 1309", "TIPO": "COND", "Descrip": "Condominio", "Municipio": "San Juan" }, "geometry": { "type": "Point", "coordinates": [ -66.069502, 18.454273 ] } },
{ "type": "Feature", "properties": { "OBJECTID": 193.0, "NOMBRE": "Condado Plaza 1351", "TIPO": "COND", "Descrip": "Condominio", "Municipio": "San Juan" }, "geometry": { "type": "Point", "coordinates": [ -66.069078, 18.4545 ] } },
{ "type": "Feature", "properties": { "OBJECTID": 194.0, "NOMBRE": "Santa Genoveva 1357", "TIPO": "COND", "Descrip": "Condominio", "Municipio": "San Juan" }, "geometry": { "type": "Point", "coordinates": [ -66.068434, 18.454556 ] } },
{ "type": "Feature", "properties": { "OBJECTID": 195.0, "NOMBRE": "San José", "TIPO": "COND", "Descrip": "Condominio", "Municipio": "San Juan" }, "geometry": { "type": "Point", "coordinates": [ -66.068263, 18.454666 ] } },
{ "type": "Feature", "properties": { "OBJECTID": 196.0, "NOMBRE": "Ashford 1360", "TIPO": "COND", "Descrip": "Condominio", "Municipio": "San Juan" }, "geometry": { "type": "Point", "coordinates": [ -66.068429, 18.454984 ] } },
{ "type": "Feature", "properties": { "OBJECTID": 197.0, "NOMBRE": "Denver 1354", "TIPO": "COND", "Descrip": "Condominio", "Municipio": "San Juan" }, "geometry": { "type": "Point", "coordinates": [ -66.068597, 18.454137 ] } },
{ "type": "Feature", "properties": { "OBJECTID": 198.0, "NOMBRE": "Plaza Stella 1362", "TIPO": "COND", "Descrip": "Condominio", "Municipio": "San Juan" }, "geometry": { "type": "Point", "coordinates": [ -66.067824, 18.454365 ] } },
{ "type": "Feature", "properties": { "OBJECTID": 199.0, "NOMBRE": "Santa María", "TIPO": "COND", "Descrip": "Condominio", "Municipio": "San Juan" }, "geometry": { "type": "Point", "coordinates": [ -66.067476, 18.454951 ] } },
{ "type": "Feature", "properties": { "OBJECTID": 200.0, "NOMBRE": "Tres Hermanos 151", "TIPO": "COND", "Descrip": "Condominio", "Municipio": "San Juan" }, "geometry": { "type": "Point", "coordinates": [ -66.06712, 18.451489 ] } },
{ "type": "Feature", "properties": { "OBJECTID": 201.0, "NOMBRE": "Primavera 156", "TIPO": "COND", "Descrip": "Condominio", "Municipio": "San Juan" }, "geometry": { "type": "Point", "coordinates": [ -66.068953, 18.451703 ] } },
{ "type": "Feature", "properties": { "OBJECTID": 202.0, "NOMBRE": "Wilson Condado Plaza 1418", "TIPO": "COND", "Descrip": "Condominio", "Municipio": "San Juan" }, "geometry": { "type": "Point", "coordinates": [ -66.067773, 18.452268 ] } },
{ "type": "Feature", "properties": { "OBJECTID": 203.0, "NOMBRE": "Wilson 1422", "TIPO": "COND", "Descrip": "Condominio", "Municipio": "San Juan" }, "geometry": { "type": "Point", "coordinates": [ -66.067445, 18.452313 ] } },
{ "type": "Feature", "properties": { "OBJECTID": 204.0, "NOMBRE": "Martinal Plaza", "TIPO": "COND", "Descrip": "Condominio", "Municipio": "San Juan" }, "geometry": { "type": "Point", "coordinates": [ -66.06805, 18.452265 ] } },
{ "type": "Feature", "properties": { "OBJECTID": 205.0, "NOMBRE": "Fátima", "TIPO": "COND", "Descrip": "Condominio", "Municipio": "San Juan" }, "geometry": { "type": "Point", "coordinates": [ -66.06862, 18.452198 ] } },
{ "type": "Feature", "properties": { "OBJECTID": 206.0, "NOMBRE": "Santa Fe Apartments 1408", "TIPO": "COND", "Descrip": "Condominio", "Municipio": "San Juan" }, "geometry": { "type": "Point", "coordinates": [ -66.068415, 18.452234 ] } },
{ "type": "Feature", "properties": { "OBJECTID": 207.0, "NOMBRE": "Emperador 1367", "TIPO": "COND", "Descrip": "Condominio", "Municipio": "San Juan" }, "geometry": { "type": "Point", "coordinates": [ -66.068059, 18.452791 ] } },
{ "type": "Feature", "properties": { "OBJECTID": 208.0, "NOMBRE": "Elbal House 73", "TIPO": "COND", "Descrip": "Condominio", "Municipio": "San Juan" }, "geometry": { "type": "Point", "coordinates": [ -66.066317, 18.452843 ] } },
{ "type": "Feature", "properties": { "OBJECTID": 209.0, "NOMBRE": "Luchetti Park 1302", "TIPO": "COND", "Descrip": "Condominio", "Municipio": "San Juan" }, "geometry": { "type": "Point", "coordinates": [ -66.070314, 18.453384 ] } },
{ "type": "Feature", "properties": { "OBJECTID": 210.0, "NOMBRE": "El Campeador 86", "TIPO": "COND", "Descrip": "Condominio", "Municipio": "San Juan" }, "geometry": { "type": "Point", "coordinates": [ -66.06954, 18.453216 ] } },
{ "type": "Feature", "properties": { "OBJECTID": 211.0, "NOMBRE": "Wilson 85", "TIPO": "COND", "Descrip": "Condominio", "Municipio": "San Juan" }, "geometry": { "type": "Point", "coordinates": [ -66.070609, 18.452995 ] } },
{ "type": "Feature", "properties": { "OBJECTID": 212.0, "NOMBRE": "El Vigía 1304", "TIPO": "COND", "Descrip": "Condominio", "Municipio": "San Juan" }, "geometry": { "type": "Point", "coordinates": [ -66.070884, 18.452682 ] } },
{ "type": "Feature", "properties": { "OBJECTID": 213.0, "NOMBRE": "Condado Classic 1306", "TIPO": "COND", "Descrip": "Condominio", "Municipio": "San Juan" }, "geometry": { "type": "Point", "coordinates": [ -66.070674, 18.452672 ] } },
{ "type": "Feature", "properties": { "OBJECTID": 214.0, "NOMBRE": "Executive Mansions 1373", "TIPO": "COND", "Descrip": "Condominio", "Municipio": "San Juan" }, "geometry": { "type": "Point", "coordinates": [ -66.067721, 18.453661 ] } },
{ "type": "Feature", "properties": { "OBJECTID": 215.0, "NOMBRE": "Luchetti 1403", "TIPO": "COND", "Descrip": "Condominio", "Municipio": "San Juan" }, "geometry": { "type": "Point", "coordinates": [ -66.067259, 18.453619 ] } },
{ "type": "Feature", "properties": { "OBJECTID": 216.0, "NOMBRE": "Condado Park 1301", "TIPO": "COND", "Descrip": "Condominio", "Municipio": "San Juan" }, "geometry": { "type": "Point", "coordinates": [ -66.070398, 18.454488 ] } },
{ "type": "Feature", "properties": { "OBJECTID": 217.0, "NOMBRE": "Piazza Luchetti 1367", "TIPO": "COND", "Descrip": "Condominio", "Municipio": "San Juan" }, "geometry": { "type": "Point", "coordinates": [ -66.068183, 18.453751 ] } },
{ "type": "Feature", "properties": { "OBJECTID": 218.0, "NOMBRE": "Ansonia 1683", "TIPO": "COND", "Descrip": "Condominio", "Municipio": "San Juan" }, "geometry": { "type": "Point", "coordinates": [ -66.062322, 18.452035 ] } },
{ "type": "Feature", "properties": { "OBJECTID": 219.0, "NOMBRE": "Santa Mónica 73", "TIPO": "COND", "Descrip": "Condominio", "Municipio": "San Juan" }, "geometry": { "type": "Point", "coordinates": [ -66.062278, 18.452446 ] } },
{ "type": "Feature", "properties": { "OBJECTID": 220.0, "NOMBRE": "St. Marys Plaza II", "TIPO": "COND", "Descrip": "Condominio", "Municipio": "San Juan" }, "geometry": { "type": "Point", "coordinates": [ -66.063262, 18.455014 ] } },
{ "type": "Feature", "properties": { "OBJECTID": 221.0, "NOMBRE": "St. Marys Plaza I", "TIPO": "COND", "Descrip": "Condominio", "Municipio": "San Juan" }, "geometry": { "type": "Point", "coordinates": [ -66.063546, 18.455478 ] } },
{ "type": "Feature", "properties": { "OBJECTID": 222.0, "NOMBRE": "Condado del Mar", "TIPO": "COND", "Descrip": "Condominio", "Municipio": "San Juan" }, "geometry": { "type": "Point", "coordinates": [ -66.064282, 18.455874 ] } },
{ "type": "Feature", "properties": { "OBJECTID": 223.0, "NOMBRE": "Torre del Mar", "TIPO": "COND", "Descrip": "Condominio", "Municipio": "San Juan" }, "geometry": { "type": "Point", "coordinates": [ -66.064786, 18.455229 ] } },
{ "type": "Feature", "properties": { "OBJECTID": 224.0, "NOMBRE": "La Ceiba", "TIPO": "COND", "Descrip": "Condominio", "Municipio": "San Juan" }, "geometry": { "type": "Point", "coordinates": [ -66.063649, 18.454907 ] } },
{ "type": "Feature", "properties": { "OBJECTID": 225.0, "NOMBRE": "Parque del Condado 52", "TIPO": "COND", "Descrip": "Condominio", "Municipio": "San Juan" }, "geometry": { "type": "Point", "coordinates": [ -66.063783, 18.453542 ] } },
{ "type": "Feature", "properties": { "OBJECTID": 226.0, "NOMBRE": "Pedreira", "TIPO": "APTO", "Descrip": "Apartamentos", "Municipio": "San Juan" }, "geometry": { "type": "Point", "coordinates": [ -66.063866, 18.453127 ] } },
{ "type": "Feature", "properties": { "OBJECTID": 227.0, "NOMBRE": "Bellamar", "TIPO": "COND", "Descrip": "Condominio", "Municipio": "San Juan" }, "geometry": { "type": "Point", "coordinates": [ -66.064689, 18.45372 ] } },
{ "type": "Feature", "properties": { "OBJECTID": 228.0, "NOMBRE": "Placid Court 71", "TIPO": "COND", "Descrip": "Condominio", "Municipio": "San Juan" }, "geometry": { "type": "Point", "coordinates": [ -66.065216, 18.452526 ] } },
{ "type": "Feature", "properties": { "OBJECTID": 229.0, "NOMBRE": "Bayola", "TIPO": "COND", "Descrip": "Condominio", "Municipio": "San Juan" }, "geometry": { "type": "Point", "coordinates": [ -66.065917, 18.451579 ] } },
{ "type": "Feature", "properties": { "OBJECTID": 230.0, "NOMBRE": "Torrecielo 1481", "TIPO": "COND", "Descrip": "Condominio", "Municipio": "San Juan" }, "geometry": { "type": "Point", "coordinates": [ -66.066717, 18.451161 ] } },
{ "type": "Feature", "properties": { "OBJECTID": 231.0, "NOMBRE": "Condado Gardens 1436", "TIPO": "COND", "Descrip": "Condominio", "Municipio": "San Juan" }, "geometry": { "type": "Point", "coordinates": [ -66.067034, 18.451256 ] } },
{ "type": "Feature", "properties": { "OBJECTID": 232.0, "NOMBRE": "Ada Ligia 1452", "TIPO": "COND", "Descrip": "Condominio", "Municipio": "San Juan" }, "geometry": { "type": "Point", "coordinates": [ -66.065935, 18.454691 ] } },
{ "type": "Feature", "properties": { "OBJECTID": 233.0, "NOMBRE": "The Washington Plaza 57", "TIPO": "COND", "Descrip": "Condominio", "Municipio": "San Juan" }, "geometry": { "type": "Point", "coordinates": [ -66.066134, 18.454181 ] } },
{ "type": "Feature", "properties": { "OBJECTID": 234.0, "NOMBRE": "Solemar", "TIPO": "COND", "Descrip": "Condominio", "Municipio": "San Juan" }, "geometry": { "type": "Point", "coordinates": [ -66.066002, 18.457181 ] } },
{ "type": "Feature", "properties": { "OBJECTID": 235.0, "NOMBRE": "Condado Princess", "TIPO": "COND", "Descrip": "Condominio", "Municipio": "San Juan" }, "geometry": { "type": "Point", "coordinates": [ -66.066418, 18.457081 ] } },
{ "type": "Feature", "properties": { "OBJECTID": 236.0, "NOMBRE": "Parque Condado 1404", "TIPO": "COND", "Descrip": "Condominio", "Municipio": "San Juan" }, "geometry": { "type": "Point", "coordinates": [ -66.066903, 18.454385 ] } },
{ "type": "Feature", "properties": { "OBJECTID": 237.0, "NOMBRE": "Condado Tower", "TIPO": "COND", "Descrip": "Condominio", "Municipio": "San Juan" }, "geometry": { "type": "Point", "coordinates": [ -66.0665, 18.455367 ] } },
{ "type": "Feature", "properties": { "OBJECTID": 238.0, "NOMBRE": "Washington Executive 28", "TIPO": "COND", "Descrip": "Condominio", "Municipio": "San Juan" }, "geometry": { "type": "Point", "coordinates": [ -66.066424, 18.455589 ] } },
{ "type": "Feature", "properties": { "OBJECTID": 239.0, "NOMBRE": "Washington 26", "TIPO": "COND", "Descrip": "Condominio", "Municipio": "San Juan" }, "geometry": { "type": "Point", "coordinates": [ -66.066444, 18.455857 ] } },
{ "type": "Feature", "properties": { "OBJECTID": 240.0, "NOMBRE": "Condado Caribe 20", "TIPO": "COND", "Descrip": "Condominio", "Municipio": "San Juan" }, "geometry": { "type": "Point", "coordinates": [ -66.066324, 18.4563 ] } },
{ "type": "Feature", "properties": { "OBJECTID": 241.0, "NOMBRE": "Ocean One Condominiun", "TIPO": "COND", "Descrip": "Condominio", "Municipio": "San Juan" }, "geometry": { "type": "Point", "coordinates": [ -66.066518, 18.456443 ] } },
{ "type": "Feature", "properties": { "OBJECTID": 242.0, "NOMBRE": "Atlantic Plaza 1402", "TIPO": "COND", "Descrip": "Condominio", "Municipio": "San Juan" }, "geometry": { "type": "Point", "coordinates": [ -66.066826, 18.456584 ] } },
{ "type": "Feature", "properties": { "OBJECTID": 243.0, "NOMBRE": "Olympic Tower", "TIPO": "COND", "Descrip": "Condominio", "Municipio": "San Juan" }, "geometry": { "type": "Point", "coordinates": [ -66.066873, 18.457113 ] } },
{ "type": "Feature", "properties": { "OBJECTID": 244.0, "NOMBRE": "Venetian Tower", "TIPO": "COND", "Descrip": "Condominio", "Municipio": "San Juan" }, "geometry": { "type": "Point", "coordinates": [ -66.066895, 18.456377 ] } },
{ "type": "Feature", "properties": { "OBJECTID": 245.0, "NOMBRE": "Condado Suites 9", "TIPO": "COND", "Descrip": "Condominio", "Municipio": "San Juan" }, "geometry": { "type": "Point", "coordinates": [ -66.066923, 18.45623 ] } },
{ "type": "Feature", "properties": { "OBJECTID": 246.0, "NOMBRE": "The Grand Atrium", "TIPO": "COND", "Descrip": "Condominio", "Municipio": "San Juan" }, "geometry": { "type": "Point", "coordinates": [ -66.066957, 18.455717 ] } },
{ "type": "Feature", "properties": { "OBJECTID": 247.0, "NOMBRE": "Victoria Plaza", "TIPO": "COND", "Descrip": "Condominio", "Municipio": "San Juan" }, "geometry": { "type": "Point", "coordinates": [ -66.068453, 18.456065 ] } },
{ "type": "Feature", "properties": { "OBJECTID": 248.0, "NOMBRE": "Candina Sea Tower 7", "TIPO": "COND", "Descrip": "Condominio", "Municipio": "San Juan" }, "geometry": { "type": "Point", "coordinates": [ -66.067939, 18.45646 ] } },
{ "type": "Feature", "properties": { "OBJECTID": 249.0, "NOMBRE": "Coral Inn 3", "TIPO": "COND", "Descrip": "Condominio", "Municipio": "San Juan" }, "geometry": { "type": "Point", "coordinates": [ -66.067784, 18.456515 ] } },
{ "type": "Feature", "properties": { "OBJECTID": 250.0, "NOMBRE": "One Candina 1", "TIPO": "COND", "Descrip": "Condominio", "Municipio": "San Juan" }, "geometry": { "type": "Point", "coordinates": [ -66.067945, 18.456806 ] } },
{ "type": "Feature", "properties": { "OBJECTID": 251.0, "NOMBRE": "Paseo Don Juan 1379", "TIPO": "COND", "Descrip": "Condominio", "Municipio": "San Juan" }, "geometry": { "type": "Point", "coordinates": [ -66.067622, 18.456844 ] } },
{ "type": "Feature", "properties": { "OBJECTID": 252.0, "NOMBRE": "Candina Reef", "TIPO": "COND", "Descrip": "Condominio", "Municipio": "San Juan" }, "geometry": { "type": "Point", "coordinates": [ -66.068533, 18.456544 ] } },
{ "type": "Feature", "properties": { "OBJECTID": 253.0, "NOMBRE": "Son Sid", "TIPO": "COND", "Descrip": "Condominio", "Municipio": "San Juan" }, "geometry": { "type": "Point", "coordinates": [ -66.069272, 18.455399 ] } },
{ "type": "Feature", "properties": { "OBJECTID": 254.0, "NOMBRE": "Ashford Imperial", "TIPO": "COND", "Descrip": "Condominio", "Municipio": "San Juan" }, "geometry": { "type": "Point", "coordinates": [ -66.070076, 18.455411 ] } },
{ "type": "Feature", "properties": { "OBJECTID": 255.0, "NOMBRE": "El Rey", "TIPO": "COND", "Descrip": "Condominio", "Municipio": "San Juan" }, "geometry": { "type": "Point", "coordinates": [ -66.067306, 18.456457 ] } },
{ "type": "Feature", "properties": { "OBJECTID": 256.0, "NOMBRE": "Embasador 1407", "TIPO": "COND", "Descrip": "Condominio", "Municipio": "San Juan" }, "geometry": { "type": "Point", "coordinates": [ -66.0669, 18.455338 ] } },
{ "type": "Feature", "properties": { "OBJECTID": 257.0, "NOMBRE": "The Grand Royal 1354", "TIPO": "COND", "Descrip": "Condominio", "Municipio": "San Juan" }, "geometry": { "type": "Point", "coordinates": [ -66.068806, 18.453157 ] } },
{ "type": "Feature", "properties": { "OBJECTID": 258.0, "NOMBRE": "The Crowne Plaza 1360", "TIPO": "COND", "Descrip": "Condominio", "Municipio": "San Juan" }, "geometry": { "type": "Point", "coordinates": [ -66.068459, 18.453361 ] } },
{ "type": "Feature", "properties": { "OBJECTID": 259.0, "NOMBRE": "Capitolio A, B, C", "TIPO": "COND", "Descrip": "Condominio", "Municipio": "San Juan" }, "geometry": { "type": "Point", "coordinates": [ -66.107161, 18.464598 ] } },
{ "type": "Feature", "properties": { "OBJECTID": 260.0, "NOMBRE": "Reina de Castilla", "TIPO": "COND", "Descrip": "Condominio", "Municipio": "San Juan" }, "geometry": { "type": "Point", "coordinates": [ -66.111412, 18.464385 ] } },
{ "type": "Feature", "properties": { "OBJECTID": 261.0, "NOMBRE": "Harbor Plaza", "TIPO": "COND", "Descrip": "Condominio", "Municipio": "San Juan" }, "geometry": { "type": "Point", "coordinates": [ -66.113277, 18.463832 ] } },
{ "type": "Feature", "properties": { "OBJECTID": 262.0, "NOMBRE": "San Sebastián Norte", "TIPO": "COND", "Descrip": "Condominio", "Municipio": "San Juan" }, "geometry": { "type": "Point", "coordinates": [ -66.114567, 18.467785 ] } },
{ "type": "Feature", "properties": { "OBJECTID": 263.0, "NOMBRE": "Carmen", "TIPO": "APTO", "Descrip": "Apartamentos", "Municipio": "San Juan" }, "geometry": { "type": "Point", "coordinates": [ -66.087387, 18.463399 ] } },
{ "type": "Feature", "properties": { "OBJECTID": 264.0, "NOMBRE": "San Luis", "TIPO": "COND", "Descrip": "Condominio", "Municipio": "San Juan" }, "geometry": { "type": "Point", "coordinates": [ -66.087356, 18.463095 ] } },
{ "type": "Feature", "properties": { "OBJECTID": 265.0, "NOMBRE": "Paseo del Caribe", "TIPO": "COND", "Descrip": "Condominio", "Municipio": "San Juan" }, "geometry": { "type": "Point", "coordinates": [ -66.087607, 18.462466 ] } },
{ "type": "Feature", "properties": { "OBJECTID": 266.0, "NOMBRE": "Condado Lagoon", "TIPO": "COND", "Descrip": "Condominio", "Municipio": "San Juan" }, "geometry": { "type": "Point", "coordinates": [ -66.086281, 18.461857 ] } },
{ "type": "Feature", "properties": { "OBJECTID": 267.0, "NOMBRE": "Laguna Plaza", "TIPO": "COND", "Descrip": "Condominio", "Municipio": "San Juan" }, "geometry": { "type": "Point", "coordinates": [ -66.086829, 18.462025 ] } },
{ "type": "Feature", "properties": { "OBJECTID": 268.0, "NOMBRE": "Parque Victoria", "TIPO": "COND", "Descrip": "Condominio", "Municipio": "San Juan" }, "geometry": { "type": "Point", "coordinates": [ -66.041886, 18.435495 ] } },
{ "type": "Feature", "properties": { "OBJECTID": 269.0, "NOMBRE": "Villa del Corozo 2410", "TIPO": "RES", "Descrip": "Residencial", "Municipio": "San Juan" }, "geometry": { "type": "Point", "coordinates": [ -66.040642, 18.43584 ] } },
{ "type": "Feature", "properties": { "OBJECTID": 270.0, "NOMBRE": "El Mirador Apts.", "TIPO": "RES", "Descrip": "Residencial", "Municipio": "San Juan" }, "geometry": { "type": "Point", "coordinates": [ -66.040036, 18.434898 ] } },
{ "type": "Feature", "properties": { "OBJECTID": 271.0, "NOMBRE": "Los Pinos", "TIPO": "SECT", "Descrip": "Sector", "Municipio": "San Juan" }, "geometry": { "type": "Point", "coordinates": [ -66.038749, 18.436211 ] } },
{ "type": "Feature", "properties": { "OBJECTID": 272.0, "NOMBRE": "Villa Habitat", "TIPO": "RES", "Descrip": "Residencial", "Municipio": "San Juan" }, "geometry": { "type": "Point", "coordinates": [ -66.040222, 18.436252 ] } },
{ "type": "Feature", "properties": { "OBJECTID": 273.0, "NOMBRE": "Paseo del Conde", "TIPO": "RES", "Descrip": "Residencial", "Municipio": "San Juan" }, "geometry": { "type": "Point", "coordinates": [ -66.041261, 18.437118 ] } },
{ "type": "Feature", "properties": { "OBJECTID": 274.0, "NOMBRE": "Villa Pelícano", "TIPO": "RES", "Descrip": "Residencial", "Municipio": "San Juan" }, "geometry": { "type": "Point", "coordinates": [ -66.03938, 18.432124 ] } },
{ "type": "Feature", "properties": { "OBJECTID": 275.0, "NOMBRE": "Miramar 700", "TIPO": "COND", "Descrip": "Condominio", "Municipio": "San Juan" }, "geometry": { "type": "Point", "coordinates": [ -66.086687, 18.453559 ] } },
{ "type": "Feature", "properties": { "OBJECTID": 276.0, "NOMBRE": "Casablanca", "TIPO": "COND", "Descrip": "Condominio", "Municipio": "San Juan" }, "geometry": { "type": "Point", "coordinates": [ -66.087275, 18.453034 ] } },
{ "type": "Feature", "properties": { "OBJECTID": 277.0, "NOMBRE": "Caribbean Sea View", "TIPO": "EDIF", "Descrip": "Edificio", "Municipio": "San Juan" }, "geometry": { "type": "Point", "coordinates": [ -66.08755, 18.454094 ] } },
{ "type": "Feature", "properties": { "OBJECTID": 278.0, "NOMBRE": "Miramar 703", "TIPO": "COND", "Descrip": "Condominio", "Municipio": "San Juan" }, "geometry": { "type": "Point", "coordinates": [ -66.086338, 18.453206 ] } },
{ "type": "Feature", "properties": { "OBJECTID": 279.0, "NOMBRE": "La Torre de Miramar 709", "TIPO": "COND", "Descrip": "Condominio", "Municipio": "San Juan" }, "geometry": { "type": "Point", "coordinates": [ -66.086478, 18.452839 ] } },
{ "type": "Feature", "properties": { "OBJECTID": 280.0, "NOMBRE": "San Antonio 712", "TIPO": "COND", "Descrip": "Condominio", "Municipio": "San Juan" }, "geometry": { "type": "Point", "coordinates": [ -66.086262, 18.452488 ] } },
{ "type": "Feature", "properties": { "OBJECTID": 281.0, "NOMBRE": "Royal House 708", "TIPO": "COND", "Descrip": "Condominio", "Municipio": "San Juan" }, "geometry": { "type": "Point", "coordinates": [ -66.086146, 18.452787 ] } },
{ "type": "Feature", "properties": { "OBJECTID": 282.0, "NOMBRE": "Fátima 706", "TIPO": "APTO", "Descrip": "Apartamentos", "Municipio": "San Juan" }, "geometry": { "type": "Point", "coordinates": [ -66.086098, 18.452901 ] } },
{ "type": "Feature", "properties": { "OBJECTID": 283.0, "NOMBRE": "Central 709", "TIPO": "COND", "Descrip": "Condominio", "Municipio": "San Juan" }, "geometry": { "type": "Point", "coordinates": [ -66.085979, 18.452345 ] } },
{ "type": "Feature", "properties": { "OBJECTID": 284.0, "NOMBRE": "Los Naranjos", "TIPO": "COND", "Descrip": "Condominio", "Municipio": "San Juan" }, "geometry": { "type": "Point", "coordinates": [ -66.085871, 18.452482 ] } },
{ "type": "Feature", "properties": { "OBJECTID": 285.0, "NOMBRE": "Unión 710", "TIPO": "COND", "Descrip": "Condominio", "Municipio": "San Juan" }, "geometry": { "type": "Point", "coordinates": [ -66.085097, 18.452076 ] } },
{ "type": "Feature", "properties": { "OBJECTID": 286.0, "NOMBRE": "Unión 709", "TIPO": "COND", "Descrip": "Condominio", "Municipio": "San Juan" }, "geometry": { "type": "Point", "coordinates": [ -66.084716, 18.452148 ] } },
{ "type": "Feature", "properties": { "OBJECTID": 287.0, "NOMBRE": "Miramar City Apartments 750", "TIPO": "APTO", "Descrip": "Apartamentos", "Municipio": "San Juan" }, "geometry": { "type": "Point", "coordinates": [ -66.084521, 18.452582 ] } },
{ "type": "Feature", "properties": { "OBJECTID": 288.0, "NOMBRE": "Ciqala Condominium Tower", "TIPO": "COND", "Descrip": "Condominio", "Municipio": "San Juan" }, "geometry": { "type": "Point", "coordinates": [ -66.084258, 18.452467 ] } },
{ "type": "Feature", "properties": { "OBJECTID": 289.0, "NOMBRE": "Unión 712", "TIPO": "COND", "Descrip": "Condominio", "Municipio": "San Juan" }, "geometry": { "type": "Point", "coordinates": [ -66.084926, 18.452651 ] } },
{ "type": "Feature", "properties": { "OBJECTID": 290.0, "NOMBRE": "Kings Court 77", "TIPO": "COND", "Descrip": "Condominio", "Municipio": "San Juan" }, "geometry": { "type": "Point", "coordinates": [ -66.061269, 18.45257 ] } },
{ "type": "Feature", "properties": { "OBJECTID": 291.0, "NOMBRE": "Condado Camelot 18", "TIPO": "COND", "Descrip": "Condominio", "Municipio": "San Juan" }, "geometry": { "type": "Point", "coordinates": [ -66.060464, 18.453084 ] } },
{ "type": "Feature", "properties": { "OBJECTID": 292.0, "NOMBRE": "Taft Tower 55", "TIPO": "COND", "Descrip": "Condominio", "Municipio": "San Juan" }, "geometry": { "type": "Point", "coordinates": [ -66.060503, 18.452418 ] } },
{ "type": "Feature", "properties": { "OBJECTID": 293.0, "NOMBRE": "San Mateo Plaza 1626", "TIPO": "COND", "Descrip": "Condominio", "Municipio": "San Juan" }, "geometry": { "type": "Point", "coordinates": [ -66.064069, 18.444412 ] } },
{ "type": "Feature", "properties": { "OBJECTID": 294.0, "NOMBRE": "San Mateo 1625", "TIPO": "COND", "Descrip": "Condominio", "Municipio": "San Juan" }, "geometry": { "type": "Point", "coordinates": [ -66.06376, 18.444627 ] } },
{ "type": "Feature", "properties": { "OBJECTID": 295.0, "NOMBRE": "Cobián Plaza", "TIPO": "COND", "Descrip": "Condominio", "Municipio": "San Juan" }, "geometry": { "type": "Point", "coordinates": [ -66.065758, 18.444846 ] } },
{ "type": "Feature", "properties": { "OBJECTID": 296.0, "NOMBRE": "Las Carmelitas", "TIPO": "COND", "Descrip": "Condominio", "Municipio": "San Juan" }, "geometry": { "type": "Point", "coordinates": [ -66.063469, 18.445408 ] } },
{ "type": "Feature", "properties": { "OBJECTID": 297.0, "NOMBRE": "Inmaculada I y II", "TIPO": "COND", "Descrip": "Condominio", "Municipio": "San Juan" }, "geometry": { "type": "Point", "coordinates": [ -66.061822, 18.442619 ] } },
{ "type": "Feature", "properties": { "OBJECTID": 298.0, "NOMBRE": "Baldorioty Gardens 501", "TIPO": "COND", "Descrip": "Condominio", "Municipio": "San Juan" }, "geometry": { "type": "Point", "coordinates": [ -66.078302, 18.454454 ] } },
{ "type": "Feature", "properties": { "OBJECTID": 299.0, "NOMBRE": "Laguna Park", "TIPO": "COND", "Descrip": "Condominio", "Municipio": "San Juan" }, "geometry": { "type": "Point", "coordinates": [ -66.07811, 18.454355 ] } },
{ "type": "Feature", "properties": { "OBJECTID": 300.0, "NOMBRE": "Laguna Towers 503", "TIPO": "COND", "Descrip": "Condominio", "Municipio": "San Juan" }, "geometry": { "type": "Point", "coordinates": [ -66.078528, 18.454031 ] } },
{ "type": "Feature", "properties": { "OBJECTID": 301.0, "NOMBRE": "Victory Garden 1001", "TIPO": "COND", "Descrip": "Condominio", "Municipio": "San Juan" }, "geometry": { "type": "Point", "coordinates": [ -66.078616, 18.45358 ] } },
{ "type": "Feature", "properties": { "OBJECTID": 302.0, "NOMBRE": "Cosmopolitan", "TIPO": "COND", "Descrip": "Condominio", "Municipio": "San Juan" }, "geometry": { "type": "Point", "coordinates": [ -66.077881, 18.453705 ] } },
{ "type": "Feature", "properties": { "OBJECTID": 303.0, "NOMBRE": "Alto del Cabro", "TIPO": "SECT", "Descrip": "Sector", "Municipio": "San Juan" }, "geometry": { "type": "Point", "coordinates": [ -66.077019, 18.453383 ] } },
{ "type": "Feature", "properties": { "OBJECTID": 304.0, "NOMBRE": "La Giralda 117", "TIPO": "COND", "Descrip": "Condominio", "Municipio": "San Juan" }, "geometry": { "type": "Point", "coordinates": [ -66.075987, 18.453035 ] } },
{ "type": "Feature", "properties": { "OBJECTID": 305.0, "NOMBRE": "Colomer 115", "TIPO": "COND", "Descrip": "Condominio", "Municipio": "San Juan" }, "geometry": { "type": "Point", "coordinates": [ -66.075866, 18.45326 ] } },
{ "type": "Feature", "properties": { "OBJECTID": 306.0, "NOMBRE": "Vista de la Laguna 111", "TIPO": "COND", "Descrip": "Condominio", "Municipio": "San Juan" }, "geometry": { "type": "Point", "coordinates": [ -66.075118, 18.453196 ] } },
{ "type": "Feature", "properties": { "OBJECTID": 307.0, "NOMBRE": "Patria 114", "TIPO": "EDIF", "Descrip": "Edificio", "Municipio": "San Juan" }, "geometry": { "type": "Point", "coordinates": [ -66.075618, 18.453186 ] } },
{ "type": "Feature", "properties": { "OBJECTID": 308.0, "NOMBRE": "Barcelona Court 113", "TIPO": "COND", "Descrip": "Condominio", "Municipio": "San Juan" }, "geometry": { "type": "Point", "coordinates": [ -66.075256, 18.453029 ] } },
{ "type": "Feature", "properties": { "OBJECTID": 309.0, "NOMBRE": "Pico Center", "TIPO": "COND", "Descrip": "Condominio", "Municipio": "San Juan" }, "geometry": { "type": "Point", "coordinates": [ -66.074461, 18.452597 ] } },
{ "type": "Feature", "properties": { "OBJECTID": 310.0, "NOMBRE": "Torreblanca 107", "TIPO": "COND", "Descrip": "Condominio", "Municipio": "San Juan" }, "geometry": { "type": "Point", "coordinates": [ -66.074465, 18.453148 ] } },
{ "type": "Feature", "properties": { "OBJECTID": 311.0, "NOMBRE": "San Gabriel 124", "TIPO": "COND", "Descrip": "Condominio", "Municipio": "San Juan" }, "geometry": { "type": "Point", "coordinates": [ -66.074714, 18.452273 ] } },
{ "type": "Feature", "properties": { "OBJECTID": 312.0, "NOMBRE": "Vélez 1352", "TIPO": "COND", "Descrip": "Condominio", "Municipio": "San Juan" }, "geometry": { "type": "Point", "coordinates": [ -66.069726, 18.452008 ] } },
{ "type": "Feature", "properties": { "OBJECTID": 313.0, "NOMBRE": "De Diego 61", "TIPO": "COND", "Descrip": "Condominio", "Municipio": "San Juan" }, "geometry": { "type": "Point", "coordinates": [ -66.063388, 18.453502 ] } },
{ "type": "Feature", "properties": { "OBJECTID": 314.0, "NOMBRE": "Maribel 1500", "TIPO": "COND", "Descrip": "Condominio", "Municipio": "San Juan" }, "geometry": { "type": "Point", "coordinates": [ -66.06337, 18.453632 ] } },
{ "type": "Feature", "properties": { "OBJECTID": 315.0, "NOMBRE": "Boriquen Park Condominiun 1506", "TIPO": "COND", "Descrip": "Condominio", "Municipio": "San Juan" }, "geometry": { "type": "Point", "coordinates": [ -66.062881, 18.45428 ] } },
{ "type": "Feature", "properties": { "OBJECTID": 316.0, "NOMBRE": "Venecia Apartments 1505", "TIPO": "APTO", "Descrip": "Apartamentos", "Municipio": "San Juan" }, "geometry": { "type": "Point", "coordinates": [ -66.063043, 18.4539 ] } },
{ "type": "Feature", "properties": { "OBJECTID": 317.0, "NOMBRE": "Delmónico 157", "TIPO": "COND", "Descrip": "Condominio", "Municipio": "San Juan" }, "geometry": { "type": "Point", "coordinates": [ -66.071505, 18.452035 ] } },
{ "type": "Feature", "properties": { "OBJECTID": 318.0, "NOMBRE": "Ángel Francisco Apartments 204", "TIPO": "APTO", "Descrip": "Apartamentos", "Municipio": "San Juan" }, "geometry": { "type": "Point", "coordinates": [ -66.06991, 18.450515 ] } },
{ "type": "Feature", "properties": { "OBJECTID": 319.0, "NOMBRE": "Ojeda Apartments 252", "TIPO": "APTO", "Descrip": "Apartamentos", "Municipio": "San Juan" }, "geometry": { "type": "Point", "coordinates": [ -66.070322, 18.450135 ] } },
{ "type": "Feature", "properties": { "OBJECTID": 320.0, "NOMBRE": "Canals 260", "TIPO": "COND", "Descrip": "Condominio", "Municipio": "San Juan" }, "geometry": { "type": "Point", "coordinates": [ -66.070663, 18.449753 ] } },
{ "type": "Feature", "properties": { "OBJECTID": 321.0, "NOMBRE": "Canals Park 253", "TIPO": "COND", "Descrip": "Condominio", "Municipio": "San Juan" }, "geometry": { "type": "Point", "coordinates": [ -66.070147, 18.449742 ] } },
{ "type": "Feature", "properties": { "OBJECTID": 322.0, "NOMBRE": "Canals Plaza 251", "TIPO": "COND", "Descrip": "Condominio", "Municipio": "San Juan" }, "geometry": { "type": "Point", "coordinates": [ -66.070279, 18.449622 ] } },
{ "type": "Feature", "properties": { "OBJECTID": 323.0, "NOMBRE": "Canals 266", "TIPO": "COND", "Descrip": "Condominio", "Municipio": "San Juan" }, "geometry": { "type": "Point", "coordinates": [ -66.071004, 18.449366 ] } },
{ "type": "Feature", "properties": { "OBJECTID": 324.0, "NOMBRE": "Ponce 274", "TIPO": "COND", "Descrip": "Condominio", "Municipio": "San Juan" }, "geometry": { "type": "Point", "coordinates": [ -66.071296, 18.448979 ] } },
{ "type": "Feature", "properties": { "OBJECTID": 325.0, "NOMBRE": "Cem 305", "TIPO": "COND", "Descrip": "Condominio", "Municipio": "San Juan" }, "geometry": { "type": "Point", "coordinates": [ -66.070868, 18.448895 ] } },
{ "type": "Feature", "properties": { "OBJECTID": 326.0, "NOMBRE": "Bahía A y B", "TIPO": "COND", "Descrip": "Condominio", "Municipio": "San Juan" }, "geometry": { "type": "Point", "coordinates": [ -66.079792, 18.447726 ] } },
{ "type": "Feature", "properties": { "OBJECTID": 327.0, "NOMBRE": "Los Nardos A", "TIPO": "COND", "Descrip": "Condominio", "Municipio": "San Juan" }, "geometry": { "type": "Point", "coordinates": [ -66.076938, 18.444268 ] } },
{ "type": "Feature", "properties": { "OBJECTID": 328.0, "NOMBRE": "Los Lirios", "TIPO": "COND", "Descrip": "Condominio", "Municipio": "San Juan" }, "geometry": { "type": "Point", "coordinates": [ -66.078589, 18.444924 ] } },
{ "type": "Feature", "properties": { "OBJECTID": 329.0, "NOMBRE": "Figueroa", "TIPO": "SECT", "Descrip": "Sector", "Municipio": "San Juan" }, "geometry": { "type": "Point", "coordinates": [ -66.075726, 18.443906 ] } },
{ "type": "Feature", "properties": { "OBJECTID": 330.0, "NOMBRE": "Tras Talleres", "TIPO": "SECT", "Descrip": "Sector", "Municipio": "San Juan" }, "geometry": { "type": "Point", "coordinates": [ -66.080274, 18.446103 ] } },
{ "type": "Feature", "properties": { "OBJECTID": 331.0, "NOMBRE": "Los Lirios", "TIPO": "RES", "Descrip": "Residencial", "Municipio": "San Juan" }, "geometry": { "type": "Point", "coordinates": [ -66.081383, 18.44686 ] } },
{ "type": "Feature", "properties": { "OBJECTID": 332.0, "NOMBRE": "Los Nardos B", "TIPO": "COND", "Descrip": "Condominio", "Municipio": "San Juan" }, "geometry": { "type": "Point", "coordinates": [ -66.076487, 18.444194 ] } },
{ "type": "Feature", "properties": { "OBJECTID": 333.0, "NOMBRE": "La Monserrate 716", "TIPO": "APTO", "Descrip": "Apartamentos", "Municipio": "San Juan" }, "geometry": { "type": "Point", "coordinates": [ -66.07762, 18.448536 ] } },
{ "type": "Feature", "properties": { "OBJECTID": 334.0, "NOMBRE": "Barcelona 712", "TIPO": "COND", "Descrip": "Condominio", "Municipio": "San Juan" }, "geometry": { "type": "Point", "coordinates": [ -66.07755, 18.448802 ] } },
{ "type": "Feature", "properties": { "OBJECTID": 335.0, "NOMBRE": "El Koury 656", "TIPO": "COND", "Descrip": "Condominio", "Municipio": "San Juan" }, "geometry": { "type": "Point", "coordinates": [ -66.074652, 18.448339 ] } },
{ "type": "Feature", "properties": { "OBJECTID": 336.0, "NOMBRE": "Condado Apartment 615", "TIPO": "COND", "Descrip": "Condominio", "Municipio": "San Juan" }, "geometry": { "type": "Point", "coordinates": [ -66.075766, 18.450078 ] } },
{ "type": "Feature", "properties": { "OBJECTID": 337.0, "NOMBRE": "La Monserrate 632", "TIPO": "COND", "Descrip": "Condominio", "Municipio": "San Juan" }, "geometry": { "type": "Point", "coordinates": [ -66.078768, 18.452018 ] } },
{ "type": "Feature", "properties": { "OBJECTID": 338.0, "NOMBRE": "Guardiola 621", "TIPO": "COND", "Descrip": "Condominio", "Municipio": "San Juan" }, "geometry": { "type": "Point", "coordinates": [ -66.07922, 18.451742 ] } },
{ "type": "Feature", "properties": { "OBJECTID": 339.0, "NOMBRE": "Salgado 701", "TIPO": "EDIF", "Descrip": "Edificio", "Municipio": "San Juan" }, "geometry": { "type": "Point", "coordinates": [ -66.079691, 18.450787 ] } },
{ "type": "Feature", "properties": { "OBJECTID": 340.0, "NOMBRE": "Hipódromo", "TIPO": "SECT", "Descrip": "Sector", "Municipio": "San Juan" }, "geometry": { "type": "Point", "coordinates": [ -66.072358, 18.446808 ] } },
{ "type": "Feature", "properties": { "OBJECTID": 341.0, "NOMBRE": "Plaza de Diego", "TIPO": "COND", "Descrip": "Condominio", "Municipio": "San Juan" }, "geometry": { "type": "Point", "coordinates": [ -66.067722, 18.44781 ] } },
{ "type": "Feature", "properties": { "OBJECTID": 342.0, "NOMBRE": "Wilson 1314", "TIPO": "COND", "Descrip": "Condominio", "Municipio": "San Juan" }, "geometry": { "type": "Point", "coordinates": [ -66.070043, 18.45266 ] } },
{ "type": "Feature", "properties": { "OBJECTID": 343.0, "NOMBRE": "Dos Hermanos", "TIPO": "COND", "Descrip": "Condominio", "Municipio": "San Juan" }, "geometry": { "type": "Point", "coordinates": [ -66.070081, 18.452273 ] } },
{ "type": "Feature", "properties": { "OBJECTID": 344.0, "NOMBRE": "Luchetti 1308", "TIPO": "COND", "Descrip": "Condominio", "Municipio": "San Juan" }, "geometry": { "type": "Point", "coordinates": [ -66.069767, 18.45326 ] } },
{ "type": "Feature", "properties": { "OBJECTID": 345.0, "NOMBRE": "The Residence at the Park", "TIPO": "COND", "Descrip": "Condominio", "Municipio": "San Juan" }, "geometry": { "type": "Point", "coordinates": [ -66.069228, 18.453316 ] } },
{ "type": "Feature", "properties": { "OBJECTID": 346.0, "NOMBRE": "Luchetti 1352", "TIPO": "COND", "Descrip": "Condominio", "Municipio": "San Juan" }, "geometry": { "type": "Point", "coordinates": [ -66.069011, 18.453244 ] } },
{ "type": "Feature", "properties": { "OBJECTID": 347.0, "NOMBRE": "Luchetti Park 1356", "TIPO": "COND", "Descrip": "Condominio", "Municipio": "San Juan" }, "geometry": { "type": "Point", "coordinates": [ -66.068611, 18.453295 ] } },
{ "type": "Feature", "properties": { "OBJECTID": 348.0, "NOMBRE": "Wilson 1351", "TIPO": "COND", "Descrip": "Condominio", "Municipio": "San Juan" }, "geometry": { "type": "Point", "coordinates": [ -66.069255, 18.452731 ] } },
{ "type": "Feature", "properties": { "OBJECTID": 349.0, "NOMBRE": "Cervantes 83", "TIPO": "COND", "Descrip": "Condominio", "Municipio": "San Juan" }, "geometry": { "type": "Point", "coordinates": [ -66.069246, 18.452874 ] } },
{ "type": "Feature", "properties": { "OBJECTID": 350.0, "NOMBRE": "Wilson 1357", "TIPO": "COND", "Descrip": "Condominio", "Municipio": "San Juan" }, "geometry": { "type": "Point", "coordinates": [ -66.068834, 18.452751 ] } },
{ "type": "Feature", "properties": { "OBJECTID": 351.0, "NOMBRE": "Luchetti 1359", "TIPO": "COND", "Descrip": "Condominio", "Municipio": "San Juan" }, "geometry": { "type": "Point", "coordinates": [ -66.068777, 18.453784 ] } },
{ "type": "Feature", "properties": { "OBJECTID": 352.0, "NOMBRE": "Washington 60", "TIPO": "COND", "Descrip": "Condominio", "Municipio": "San Juan" }, "geometry": { "type": "Point", "coordinates": [ -66.06663, 18.453965 ] } },
{ "type": "Feature", "properties": { "OBJECTID": 353.0, "NOMBRE": "Costa Condado 1420", "TIPO": "COND", "Descrip": "Condominio", "Municipio": "San Juan" }, "geometry": { "type": "Point", "coordinates": [ -66.067568, 18.45231 ] } },
{ "type": "Feature", "properties": { "OBJECTID": 354.0, "NOMBRE": "Maribel 1509", "TIPO": "COND", "Descrip": "Condominio", "Municipio": "San Juan" }, "geometry": { "type": "Point", "coordinates": [ -66.062716, 18.453818 ] } },
{ "type": "Feature", "properties": { "OBJECTID": 355.0, "NOMBRE": "Isla Nena", "TIPO": "APTO", "Descrip": "Apartamentos", "Municipio": "San Juan" }, "geometry": { "type": "Point", "coordinates": [ -66.062568, 18.45377 ] } },
{ "type": "Feature", "properties": { "OBJECTID": 356.0, "NOMBRE": "Paseo Hawayek", "TIPO": "COND", "Descrip": "Condominio", "Municipio": "San Juan" }, "geometry": { "type": "Point", "coordinates": [ -66.062335, 18.453766 ] } },
{ "type": "Feature", "properties": { "OBJECTID": 357.0, "NOMBRE": "Ocean Park Tower", "TIPO": "COND", "Descrip": "Condominio", "Municipio": "San Juan" }, "geometry": { "type": "Point", "coordinates": [ -66.060366, 18.451043 ] } },
{ "type": "Feature", "properties": { "OBJECTID": 358.0, "NOMBRE": "Monterey 109", "TIPO": "COND", "Descrip": "Condominio", "Municipio": "San Juan" }, "geometry": { "type": "Point", "coordinates": [ -66.061138, 18.450832 ] } },
{ "type": "Feature", "properties": { "OBJECTID": 359.0, "NOMBRE": "Taft 154", "TIPO": "COND", "Descrip": "Condominio", "Municipio": "San Juan" }, "geometry": { "type": "Point", "coordinates": [ -66.061615, 18.449932 ] } },
{ "type": "Feature", "properties": { "OBJECTID": 360.0, "NOMBRE": "Belle Towers 165", "TIPO": "COND", "Descrip": "Condominio", "Municipio": "San Juan" }, "geometry": { "type": "Point", "coordinates": [ -66.061319, 18.44954 ] } },
{ "type": "Feature", "properties": { "OBJECTID": 361.0, "NOMBRE": "Elbal Terrace 771", "TIPO": "COND", "Descrip": "Condominio", "Municipio": "San Juan" }, "geometry": { "type": "Point", "coordinates": [ -66.062276, 18.448921 ] } },
{ "type": "Feature", "properties": { "OBJECTID": 362.0, "NOMBRE": "Rijo 1700", "TIPO": "COND", "Descrip": "Condominio", "Municipio": "San Juan" }, "geometry": { "type": "Point", "coordinates": [ -66.062194, 18.449307 ] } },
{ "type": "Feature", "properties": { "OBJECTID": 363.0, "NOMBRE": "Park Place", "TIPO": "COND", "Descrip": "Condominio", "Municipio": "San Juan" }, "geometry": { "type": "Point", "coordinates": [ -66.062724, 18.448774 ] } },
{ "type": "Feature", "properties": { "OBJECTID": 364.0, "NOMBRE": "Los Almendros 168", "TIPO": "COND", "Descrip": "Condominio", "Municipio": "San Juan" }, "geometry": { "type": "Point", "coordinates": [ -66.062592, 18.449433 ] } },
{ "type": "Feature", "properties": { "OBJECTID": 365.0, "NOMBRE": "The Alexander", "TIPO": "COND", "Descrip": "Condominio", "Municipio": "San Juan" }, "geometry": { "type": "Point", "coordinates": [ -66.062301, 18.449838 ] } },
{ "type": "Feature", "properties": { "OBJECTID": 366.0, "NOMBRE": "De la Fuente 1609", "TIPO": "COND", "Descrip": "Condominio", "Municipio": "San Juan" }, "geometry": { "type": "Point", "coordinates": [ -66.062359, 18.450822 ] } },
{ "type": "Feature", "properties": { "OBJECTID": 367.0, "NOMBRE": "De la Fuente 1607", "TIPO": "COND", "Descrip": "Condominio", "Municipio": "San Juan" }, "geometry": { "type": "Point", "coordinates": [ -66.062477, 18.450841 ] } },
{ "type": "Feature", "properties": { "OBJECTID": 368.0, "NOMBRE": "Del Parque 115", "TIPO": "COND", "Descrip": "Condominio", "Municipio": "San Juan" }, "geometry": { "type": "Point", "coordinates": [ -66.06284, 18.451017 ] } },
{ "type": "Feature", "properties": { "OBJECTID": 369.0, "NOMBRE": "Del Parque 111", "TIPO": "COND", "Descrip": "Condominio", "Municipio": "San Juan" }, "geometry": { "type": "Point", "coordinates": [ -66.062766, 18.451174 ] } },
{ "type": "Feature", "properties": { "OBJECTID": 370.0, "NOMBRE": "Castillo Del Parque 155", "TIPO": "COND", "Descrip": "Condominio", "Municipio": "San Juan" }, "geometry": { "type": "Point", "coordinates": [ -66.062861, 18.450362 ] } },
{ "type": "Feature", "properties": { "OBJECTID": 371.0, "NOMBRE": "Erjo Apartment 121", "TIPO": "APTO", "Descrip": "Apartamentos", "Municipio": "San Juan" }, "geometry": { "type": "Point", "coordinates": [ -66.058437, 18.449978 ] } },
{ "type": "Feature", "properties": { "OBJECTID": 372.0, "NOMBRE": "Park Place 1555", "TIPO": "COND", "Descrip": "Condominio", "Municipio": "San Juan" }, "geometry": { "type": "Point", "coordinates": [ -66.063407, 18.450487 ] } },
{ "type": "Feature", "properties": { "OBJECTID": 373.0, "NOMBRE": "Condado Les Cours 154", "TIPO": "COND", "Descrip": "Condominio", "Municipio": "San Juan" }, "geometry": { "type": "Point", "coordinates": [ -66.063693, 18.449481 ] } },
{ "type": "Feature", "properties": { "OBJECTID": 374.0, "NOMBRE": "Francia 155", "TIPO": "COND", "Descrip": "Condominio", "Municipio": "San Juan" }, "geometry": { "type": "Point", "coordinates": [ -66.064212, 18.449214 ] } },
{ "type": "Feature", "properties": { "OBJECTID": 375.0, "NOMBRE": "Joma 1524", "TIPO": "COND", "Descrip": "Condominio", "Municipio": "San Juan" }, "geometry": { "type": "Point", "coordinates": [ -66.064482, 18.449686 ] } },
{ "type": "Feature", "properties": { "OBJECTID": 376.0, "NOMBRE": "Horomar 1559", "TIPO": "COND", "Descrip": "Condominio", "Municipio": "San Juan" }, "geometry": { "type": "Point", "coordinates": [ -66.063569, 18.449907 ] } },
{ "type": "Feature", "properties": { "OBJECTID": 377.0, "NOMBRE": "Buena Ventura Apartment 136", "TIPO": "APTO", "Descrip": "Apartamentos", "Municipio": "San Juan" }, "geometry": { "type": "Point", "coordinates": [ -66.063335, 18.449948 ] } },
{ "type": "Feature", "properties": { "OBJECTID": 378.0, "NOMBRE": "1604", "TIPO": "COND", "Descrip": "Condominio", "Municipio": "San Juan" }, "geometry": { "type": "Point", "coordinates": [ -66.062328, 18.451703 ] } },
{ "type": "Feature", "properties": { "OBJECTID": 379.0, "NOMBRE": "Madrid 1770", "TIPO": "COND", "Descrip": "Condominio", "Municipio": "San Juan" }, "geometry": { "type": "Point", "coordinates": [ -66.060309, 18.451462 ] } },
{ "type": "Feature", "properties": { "OBJECTID": 380.0, "NOMBRE": "Loíza 1808", "TIPO": "COND", "Descrip": "Condominio", "Municipio": "San Juan" }, "geometry": { "type": "Point", "coordinates": [ -66.059289, 18.451353 ] } },
{ "type": "Feature", "properties": { "OBJECTID": 381.0, "NOMBRE": "Sanjurjo Parque 171", "TIPO": "COND", "Descrip": "Condominio", "Municipio": "San Juan" }, "geometry": { "type": "Point", "coordinates": [ -66.063111, 18.449347 ] } },
{ "type": "Feature", "properties": { "OBJECTID": 382.0, "NOMBRE": "De la Fuente Apt.", "TIPO": "APTO", "Descrip": "Apartamentos", "Municipio": "San Juan" }, "geometry": { "type": "Point", "coordinates": [ -66.062836, 18.45233 ] } },
{ "type": "Feature", "properties": { "OBJECTID": 383.0, "NOMBRE": "Las Marías 1509", "TIPO": "APTO", "Descrip": "Apartamentos", "Municipio": "San Juan" }, "geometry": { "type": "Point", "coordinates": [ -66.06292, 18.452649 ] } },
{ "type": "Feature", "properties": { "OBJECTID": 384.0, "NOMBRE": "Las Marías 1507", "TIPO": "APTO", "Descrip": "Apartamentos", "Municipio": "San Juan" }, "geometry": { "type": "Point", "coordinates": [ -66.063096, 18.452712 ] } },
{ "type": "Feature", "properties": { "OBJECTID": 385.0, "NOMBRE": "Marymar 1754", "TIPO": "COND", "Descrip": "Condominio", "Municipio": "San Juan" }, "geometry": { "type": "Point", "coordinates": [ -66.06007, 18.45268 ] } },
{ "type": "Feature", "properties": { "OBJECTID": 386.0, "NOMBRE": "Carrión Court 6", "TIPO": "COND", "Descrip": "Condominio", "Municipio": "San Juan" }, "geometry": { "type": "Point", "coordinates": [ -66.059266, 18.454253 ] } },
{ "type": "Feature", "properties": { "OBJECTID": 387.0, "NOMBRE": "Carrión Court Playa", "TIPO": "COND", "Descrip": "Condominio", "Municipio": "San Juan" }, "geometry": { "type": "Point", "coordinates": [ -66.059371, 18.453711 ] } },
{ "type": "Feature", "properties": { "OBJECTID": 388.0, "NOMBRE": "McLeary Condominium 1800", "TIPO": "COND", "Descrip": "Condominio", "Municipio": "San Juan" }, "geometry": { "type": "Point", "coordinates": [ -66.05911, 18.452579 ] } },
{ "type": "Feature", "properties": { "OBJECTID": 389.0, "NOMBRE": "McLeary 1802", "TIPO": "COND", "Descrip": "Condominio", "Municipio": "San Juan" }, "geometry": { "type": "Point", "coordinates": [ -66.058845, 18.452488 ] } },
{ "type": "Feature", "properties": { "OBJECTID": 390.0, "NOMBRE": "McLeary 1760", "TIPO": "APTO", "Descrip": "Apartamentos", "Municipio": "San Juan" }, "geometry": { "type": "Point", "coordinates": [ -66.059494, 18.45249 ] } },
{ "type": "Feature", "properties": { "OBJECTID": 391.0, "NOMBRE": "Loíza 1801", "TIPO": "COND", "Descrip": "Condominio", "Municipio": "San Juan" }, "geometry": { "type": "Point", "coordinates": [ -66.05923, 18.45161 ] } },
{ "type": "Feature", "properties": { "OBJECTID": 392.0, "NOMBRE": "Loíza 1811", "TIPO": "COND", "Descrip": "Condominio", "Municipio": "San Juan" }, "geometry": { "type": "Point", "coordinates": [ -66.05859, 18.451527 ] } },
{ "type": "Feature", "properties": { "OBJECTID": 393.0, "NOMBRE": "Loíza 1851", "TIPO": "COND", "Descrip": "Condominio", "Municipio": "San Juan" }, "geometry": { "type": "Point", "coordinates": [ -66.058241, 18.451483 ] } },
{ "type": "Feature", "properties": { "OBJECTID": 394.0, "NOMBRE": "Loíza 1853", "TIPO": "COND", "Descrip": "Condominio", "Municipio": "San Juan" }, "geometry": { "type": "Point", "coordinates": [ -66.058124, 18.45144 ] } },
{ "type": "Feature", "properties": { "OBJECTID": 395.0, "NOMBRE": "Loíza 1863", "TIPO": "COND", "Descrip": "Condominio", "Municipio": "San Juan" }, "geometry": { "type": "Point", "coordinates": [ -66.057497, 18.451456 ] } },
{ "type": "Feature", "properties": { "OBJECTID": 396.0, "NOMBRE": "City Center 155", "TIPO": "COND", "Descrip": "Condominio", "Municipio": "San Juan" }, "geometry": { "type": "Point", "coordinates": [ -66.061209, 18.450046 ] } },
{ "type": "Feature", "properties": { "OBJECTID": 397.0, "NOMBRE": "San Juan Park I Apts.", "TIPO": "COND", "Descrip": "Condominio", "Municipio": "San Juan" }, "geometry": { "type": "Point", "coordinates": [ -66.065006, 18.438593 ] } },
{ "type": "Feature", "properties": { "OBJECTID": 398.0, "NOMBRE": "San Juan Park II Apts.", "TIPO": "COND", "Descrip": "Condominio", "Municipio": "San Juan" }, "geometry": { "type": "Point", "coordinates": [ -66.065828, 18.437539 ] } },
{ "type": "Feature", "properties": { "OBJECTID": 399.0, "NOMBRE": "Parque de San Juan 851", "TIPO": "COND", "Descrip": "Condominio", "Municipio": "San Juan" }, "geometry": { "type": "Point", "coordinates": [ -66.064928, 18.437499 ] } },
{ "type": "Feature", "properties": { "OBJECTID": 400.0, "NOMBRE": "Villa de Parque", "TIPO": "COND", "Descrip": "Condominio", "Municipio": "San Juan" }, "geometry": { "type": "Point", "coordinates": [ -66.063513, 18.43801 ] } },
{ "type": "Feature", "properties": { "OBJECTID": 401.0, "NOMBRE": "Rosamar 220", "TIPO": "COND", "Descrip": "Condominio", "Municipio": "San Juan" }, "geometry": { "type": "Point", "coordinates": [ -66.064747, 18.448576 ] } },
{ "type": "Feature", "properties": { "OBJECTID": 402.0, "NOMBRE": "El Rosario 256", "TIPO": "COND", "Descrip": "Condominio", "Municipio": "San Juan" }, "geometry": { "type": "Point", "coordinates": [ -66.065109, 18.447997 ] } },
{ "type": "Feature", "properties": { "OBJECTID": 403.0, "NOMBRE": "Villas del Parque 255", "TIPO": "COND", "Descrip": "Condominio", "Municipio": "San Juan" }, "geometry": { "type": "Point", "coordinates": [ -66.064733, 18.447062 ] } },
{ "type": "Feature", "properties": { "OBJECTID": 404.0, "NOMBRE": "Santurce Plaza 262", "TIPO": "COND", "Descrip": "Condominio", "Municipio": "San Juan" }, "geometry": { "type": "Point", "coordinates": [ -66.064985, 18.447313 ] } },
{ "type": "Feature", "properties": { "OBJECTID": 405.0, "NOMBRE": "Norte Plaza 219", "TIPO": "COND", "Descrip": "Condominio", "Municipio": "San Juan" }, "geometry": { "type": "Point", "coordinates": [ -66.064272, 18.44852 ] } },
{ "type": "Feature", "properties": { "OBJECTID": 406.0, "NOMBRE": "Parque Central 229", "TIPO": "COND", "Descrip": "Condominio", "Municipio": "San Juan" }, "geometry": { "type": "Point", "coordinates": [ -66.064224, 18.446908 ] } },
{ "type": "Feature", "properties": { "OBJECTID": 407.0, "NOMBRE": "Plaza del Parque 233-235", "TIPO": "COND", "Descrip": "Condominio", "Municipio": "San Juan" }, "geometry": { "type": "Point", "coordinates": [ -66.064602, 18.446793 ] } },
{ "type": "Feature", "properties": { "OBJECTID": 408.0, "NOMBRE": "San Martín", "TIPO": "COND", "Descrip": "Condominio", "Municipio": "San Juan" }, "geometry": { "type": "Point", "coordinates": [ -66.06621, 18.444845 ] } },
{ "type": "Feature", "properties": { "OBJECTID": 409.0, "NOMBRE": "Magdalena Towers 361", "TIPO": "COND", "Descrip": "Condominio", "Municipio": "San Juan" }, "geometry": { "type": "Point", "coordinates": [ -66.06548, 18.445699 ] } },
{ "type": "Feature", "properties": { "OBJECTID": 410.0, "NOMBRE": "Antonsanti 1619", "TIPO": "COND", "Descrip": "Condominio", "Municipio": "San Juan" }, "geometry": { "type": "Point", "coordinates": [ -66.064093, 18.44641 ] } },
{ "type": "Feature", "properties": { "OBJECTID": 411.0, "NOMBRE": "El Castillo de Miramar 659", "TIPO": "COND", "Descrip": "Condominio", "Municipio": "San Juan" }, "geometry": { "type": "Point", "coordinates": [ -66.085911, 18.454149 ] } },
{ "type": "Feature", "properties": { "OBJECTID": 412.0, "NOMBRE": "Playita", "TIPO": "SECT", "Descrip": "Sector", "Municipio": "San Juan" }, "geometry": { "type": "Point", "coordinates": [ -66.043678, 18.444913 ] } },
{ "type": "Feature", "properties": { "OBJECTID": 413.0, "NOMBRE": "Changai *", "TIPO": "SECT", "Descrip": "Sector", "Municipio": "San Juan" }, "geometry": { "type": "Point", "coordinates": [ -66.046013, 18.444056 ] } },
{ "type": "Feature", "properties": { "OBJECTID": 414.0, "NOMBRE": "Changai *", "TIPO": "SECT", "Descrip": "Sector", "Municipio": "San Juan" }, "geometry": { "type": "Point", "coordinates": [ -66.048792, 18.444954 ] } },
{ "type": "Feature", "properties": { "OBJECTID": 415.0, "NOMBRE": "Herrera", "TIPO": "SECT", "Descrip": "Sector", "Municipio": "San Juan" }, "geometry": { "type": "Point", "coordinates": [ -66.048656, 18.445805 ] } },
{ "type": "Feature", "properties": { "OBJECTID": 416.0, "NOMBRE": "Villa Palmeras *", "TIPO": "SECT", "Descrip": "Sector", "Municipio": "San Juan" }, "geometry": { "type": "Point", "coordinates": [ -66.049882, 18.442403 ] } },
{ "type": "Feature", "properties": { "OBJECTID": 417.0, "NOMBRE": "Mira Palmeras", "TIPO": "SECT", "Descrip": "Sector", "Municipio": "San Juan" }, "geometry": { "type": "Point", "coordinates": [ -66.048072, 18.440952 ] } },
{ "type": "Feature", "properties": { "OBJECTID": 418.0, "NOMBRE": "Barrio Obrero *", "TIPO": "SECT", "Descrip": "Sector", "Municipio": "San Juan" }, "geometry": { "type": "Point", "coordinates": [ -66.052338, 18.439181 ] } },
{ "type": "Feature", "properties": { "OBJECTID": 419.0, "NOMBRE": null, "TIPO": null, "Descrip": null, "Municipio": "San Juan" }, "geometry": { "type": "Point", "coordinates": [ -66.047897, 18.437689 ] } },
{ "type": "Feature", "properties": { "OBJECTID": 420.0, "NOMBRE": "Monte Flores", "TIPO": "SECT", "Descrip": "Sector", "Municipio": "San Juan" }, "geometry": { "type": "Point", "coordinates": [ -66.055582, 18.440976 ] } },
{ "type": "Feature", "properties": { "OBJECTID": 421.0, "NOMBRE": "San Lorenzo 710", "TIPO": "COND", "Descrip": "Condominio", "Municipio": "San Juan" }, "geometry": { "type": "Point", "coordinates": [ -66.085014, 18.452754 ] } },
{ "type": "Feature", "properties": { "OBJECTID": 422.0, "NOMBRE": "Saint Joseph 666", "TIPO": "APTO", "Descrip": "Apartamentos", "Municipio": "San Juan" }, "geometry": { "type": "Point", "coordinates": [ -66.084646, 18.453036 ] } },
{ "type": "Feature", "properties": { "OBJECTID": 423.0, "NOMBRE": "Casa Rosa", "TIPO": "COND", "Descrip": "Condominio", "Municipio": "San Juan" }, "geometry": { "type": "Point", "coordinates": [ -66.096151, 18.464248 ] } },
{ "type": "Feature", "properties": { "OBJECTID": 424.0, "NOMBRE": "Miraflores 903", "TIPO": "COND", "Descrip": "Condominio", "Municipio": "San Juan" }, "geometry": { "type": "Point", "coordinates": [ -66.087467, 18.452874 ] } },
{ "type": "Feature", "properties": { "OBJECTID": 425.0, "NOMBRE": "Excelsior Tower", "TIPO": "COND", "Descrip": "Condominio", "Municipio": "San Juan" }, "geometry": { "type": "Point", "coordinates": [ -66.08236, 18.455898 ] } },
{ "type": "Feature", "properties": { "OBJECTID": 426.0, "NOMBRE": "Balmoral", "TIPO": "COND", "Descrip": "Condominio", "Municipio": "San Juan" }, "geometry": { "type": "Point", "coordinates": [ -66.063183, 18.451235 ] } },
{ "type": "Feature", "properties": { "OBJECTID": 427.0, "NOMBRE": "Brisas de San Juan 1663", "TIPO": "COND", "Descrip": "Condominio", "Municipio": "San Juan" }, "geometry": { "type": "Point", "coordinates": [ -66.064668, 18.443599 ] } },
{ "type": "Feature", "properties": { "OBJECTID": 428.0, "NOMBRE": "Baldorioty Plaza", "TIPO": "COND", "Descrip": "Condominio", "Municipio": "San Juan" }, "geometry": { "type": "Point", "coordinates": [ -66.060853, 18.447941 ] } },
{ "type": "Feature", "properties": { "OBJECTID": 429.0, "NOMBRE": "Los Portales I", "TIPO": "APTO", "Descrip": "Apartamentos", "Municipio": "San Juan" }, "geometry": { "type": "Point", "coordinates": [ -66.052213, 18.445263 ] } },
{ "type": "Feature", "properties": { "OBJECTID": 430.0, "NOMBRE": "Los Portales II", "TIPO": "APTO", "Descrip": "Apartamentos", "Municipio": "San Juan" }, "geometry": { "type": "Point", "coordinates": [ -66.051523, 18.445588 ] } },
{ "type": "Feature", "properties": { "OBJECTID": 431.0, "NOMBRE": "El Pentagono", "TIPO": "COND", "Descrip": "Condominio", "Municipio": "San Juan" }, "geometry": { "type": "Point", "coordinates": [ -66.059025, 18.436565 ] } },
{ "type": "Feature", "properties": { "OBJECTID": 432.0, "NOMBRE": "Belleview", "TIPO": "COND", "Descrip": "Condominio", "Municipio": "San Juan" }, "geometry": { "type": "Point", "coordinates": [ -66.054508, 18.441899 ] } },
{ "type": "Feature", "properties": { "OBJECTID": 433.0, "NOMBRE": "Paseo del Bosque 2011", "TIPO": "COND", "Descrip": "Condominio", "Municipio": "San Juan" }, "geometry": { "type": "Point", "coordinates": [ -66.054827, 18.442005 ] } },
{ "type": "Feature", "properties": { "OBJECTID": 434.0, "NOMBRE": "Brisas de Monte Flores", "TIPO": "COND", "Descrip": "Condominio", "Municipio": "San Juan" }, "geometry": { "type": "Point", "coordinates": [ -66.055238, 18.4419 ] } },
{ "type": "Feature", "properties": { "OBJECTID": 435.0, "NOMBRE": "The Lofts 2014", "TIPO": "COND", "Descrip": "Condominio", "Municipio": "San Juan" }, "geometry": { "type": "Point", "coordinates": [ -66.054742, 18.440905 ] } },
{ "type": "Feature", "properties": { "OBJECTID": 436.0, "NOMBRE": "Vista al Mar", "TIPO": "COND", "Descrip": "Condominio", "Municipio": "San Juan" }, "geometry": { "type": "Point", "coordinates": [ -66.054851, 18.441199 ] } },
{ "type": "Feature", "properties": { "OBJECTID": 437.0, "NOMBRE": "City View Tower", "TIPO": "COND", "Descrip": "Condominio", "Municipio": "San Juan" },